{
    "records": [
        {
            "url": "https://en.wikipedia.org/wiki/National_Museum_of_the_United_States_Air_Force", 
            "lat": 39.781976, 
            "lon": -84.108892, 
            "id": "wiki_1", 
            "title": "National Museum of the United States Air Force"
        }, 
        {
            "url": "https://en.wikipedia.org/wiki/Museum_of_Contemporary_Art,_Chicago", 
            "lat": 41.8972, 
            "lon": -87.6212, 
            "id": "wiki_2", 
            "title": "Museum of Contemporary Art, Chicago"
        }, 
        {
            "url": "https://en.wikipedia.org/wiki/Motorcycle_Hall_of_Fame", 
            "lat": 39.9338, 
            "lon": -82.7834, 
            "id": "wiki_3", 
            "title": "Motorcycle Hall of Fame"
        }, 
        {
            "url": "https://en.wikipedia.org/wiki/National_Museum_of_the_United_States_Navy", 
            "lat": 38.8733, 
            "lon": -76.9953, 
            "id": "wiki_4", 
            "title": "National Museum of the United States Navy"
        }, 
        {
            "url": "https://en.wikipedia.org/wiki/Museum_of_Transport,_Greater_Manchester", 
            "lat": 53.5029, 
            "lon": -2.2332, 
            "id": "wiki_5", 
            "title": "Museum of Transport, Greater Manchester"
        }, 
        {
            "url": "https://en.wikipedia.org/wiki/National_Museum_of_Natural_History_(France)", 
            "lat": 48.842109, 
            "lon": 2.356286, 
            "id": "wiki_6", 
            "title": "National Museum of Natural History (France)"
        }, 
        {
            "url": "https://en.wikipedia.org/wiki/Bullock_Texas_State_History_Museum", 
            "lat": 30.2802, 
            "lon": -97.7388, 
            "id": "wiki_7", 
            "title": "Bullock Texas State History Museum"
        }, 
        {
            "url": "https://en.wikipedia.org/wiki/National_Museum_of_Scotland", 
            "lat": 55.94694444, 
            "lon": -3.19, 
            "id": "wiki_8", 
            "title": "National Museum of Scotland"
        }, 
        {
            "url": "https://en.wikipedia.org/wiki/Museum_Campus", 
            "lat": 41.8665, 
            "lon": -87.6141, 
            "id": "wiki_9", 
            "title": "Museum Campus"
        }, 
        {
            "url": "https://en.wikipedia.org/wiki/Museum_of_Modern_Art", 
            "lat": 40.761484, 
            "lon": -73.977664, 
            "id": "wiki_10", 
            "title": "Museum of Modern Art"
        }, 
        {
            "url": "https://en.wikipedia.org/wiki/Science_Museum,_London", 
            "lat": 51.4975, 
            "lon": -0.17472222, 
            "id": "wiki_11", 
            "title": "Science Museum, London"
        }, 
        {
            "url": "https://en.wikipedia.org/wiki/Museum_Boijmans_Van_Beuningen", 
            "lat": 51.914, 
            "lon": 4.4732, 
            "id": "wiki_12", 
            "title": "Museum Boijmans Van Beuningen"
        }, 
        {
            "url": "https://en.wikipedia.org/wiki/Weisman_Art_Museum", 
            "lat": 44.97277778, 
            "lon": -93.23805556, 
            "id": "wiki_13", 
            "title": "Weisman Art Museum"
        }, 
        {
            "url": "https://en.wikipedia.org/wiki/Museum_of_London_Docklands", 
            "lat": 51.50749969, 
            "lon": -0.0236111, 
            "id": "wiki_14", 
            "title": "Museum of London Docklands"
        }, 
        {
            "url": "https://en.wikipedia.org/wiki/Diyarbak\u0131r_Archaeological_Museum", 
            "lat": 37.92083333, 
            "lon": 40.23444444, 
            "id": "wiki_15", 
            "title": "Diyarbak\u0131r Archaeological Museum"
        }, 
        {
            "url": "https://en.wikipedia.org/wiki/Lashenden_Air_Warfare_Museum", 
            "lat": 51.1538887, 
            "lon": 0.64611113, 
            "id": "wiki_16", 
            "title": "Lashenden Air Warfare Museum"
        }, 
        {
            "url": "https://en.wikipedia.org/wiki/Eski\u015fehir_Archaeological_Museum", 
            "lat": 39.76555634, 
            "lon": 30.5130558, 
            "id": "wiki_17", 
            "title": "Eski\u015fehir Archaeological Museum"
        }, 
        {
            "url": "https://en.wikipedia.org/wiki/Portland_Art_Museum", 
            "lat": 45.516211, 
            "lon": -122.683515, 
            "id": "wiki_18", 
            "title": "Portland Art Museum"
        }, 
        {
            "url": "https://en.wikipedia.org/wiki/National_Air_and_Space_Museum", 
            "lat": 38.888, 
            "lon": -77.02, 
            "id": "wiki_19", 
            "title": "National Air and Space Museum"
        }, 
        {
            "url": "https://en.wikipedia.org/wiki/Museum_of_Sex", 
            "lat": 40.744298, 
            "lon": -73.987041, 
            "id": "wiki_20", 
            "title": "Museum of Sex"
        }, 
        {
            "url": "https://en.wikipedia.org/wiki/University_of_Copenhagen_Geological_Museum", 
            "lat": 55.6875, 
            "lon": 12.57670021, 
            "id": "wiki_21", 
            "title": "University of Copenhagen Geological Museum"
        }, 
        {
            "url": "https://en.wikipedia.org/wiki/J._Paul_Getty_Museum", 
            "lat": 34.0775, 
            "lon": -118.475, 
            "id": "wiki_22", 
            "title": "J. Paul Getty Museum"
        }, 
        {
            "url": "https://en.wikipedia.org/wiki/Governor's_Museum", 
            "lat": 2.19305556, 
            "lon": 102.24986111, 
            "id": "wiki_23", 
            "title": "Governor's Museum"
        }, 
        {
            "url": "https://en.wikipedia.org/wiki/Putnam_Museum", 
            "lat": 41.531, 
            "lon": -90.602, 
            "id": "wiki_24", 
            "title": "Putnam Museum"
        }, 
        {
            "url": "https://en.wikipedia.org/wiki/Putnam_Museum", 
            "lat": 41.531, 
            "lon": -90.602, 
            "id": "wiki_25", 
            "title": "Putnam Museum"
        }, 
        {
            "url": "https://en.wikipedia.org/wiki/Australian_Museum", 
            "lat": -33.8774321, 
            "lon": 151.212732, 
            "id": "wiki_26", 
            "title": "Australian Museum"
        }, 
        {
            "url": "https://en.wikipedia.org/wiki/Archaeological_Museum_of_Granada", 
            "lat": 37.17861111, 
            "lon": -3.59166667, 
            "id": "wiki_27", 
            "title": "Archaeological Museum of Granada"
        }, 
        {
            "url": "https://en.wikipedia.org/wiki/Geology_Hall", 
            "lat": 40.498588, 
            "lon": -74.446504, 
            "id": "wiki_28", 
            "title": "Geology Hall"
        }, 
        {
            "url": "https://en.wikipedia.org/wiki/Vienna_Museum_of_Natural_History", 
            "lat": 48.2052002, 
            "lon": 16.35989952, 
            "id": "wiki_29", 
            "title": "Vienna Museum of Natural History"
        }, 
        {
            "url": "https://en.wikipedia.org/wiki/National_Museum_of_American_History", 
            "lat": 38.8913, 
            "lon": -77.03, 
            "id": "wiki_30", 
            "title": "National Museum of American History"
        }, 
        {
            "url": "https://en.wikipedia.org/wiki/Cooper_Hewitt,_Smithsonian_Design_Museum", 
            "lat": 40.7844, 
            "lon": -73.9582, 
            "id": "wiki_31", 
            "title": "Cooper Hewitt, Smithsonian Design Museum"
        }, 
        {
            "url": "https://en.wikipedia.org/wiki/T\u00f8jhus_Museum", 
            "lat": 55.67444444, 
            "lon": 12.58027778, 
            "id": "wiki_32", 
            "title": "T\u00f8jhus Museum"
        }, 
        {
            "url": "https://en.wikipedia.org/wiki/Firing_Line:_Cardiff_Castle_Museum_of_the_Welsh_Soldier", 
            "lat": 51.482, 
            "lon": -3.181, 
            "id": "wiki_33", 
            "title": "Firing Line: Cardiff Castle Museum of the Welsh Soldier"
        }, 
        {
            "url": "https://en.wikipedia.org/wiki/London_Transport_Museum", 
            "lat": 51.51194382, 
            "lon": -0.12166667, 
            "id": "wiki_34", 
            "title": "London Transport Museum"
        }, 
        {
            "url": "https://en.wikipedia.org/wiki/PAF_Museum,_Karachi", 
            "lat": 24.872, 
            "lon": 67.0974, 
            "id": "wiki_35", 
            "title": "PAF Museum, Karachi"
        }, 
        {
            "url": "https://en.wikipedia.org/wiki/Firepower_\u2013_The_Royal_Artillery_Museum", 
            "lat": 51.49388885, 
            "lon": 0.07083333, 
            "id": "wiki_36", 
            "title": "Firepower \u2013 The Royal Artillery Museum"
        }, 
        {
            "url": "https://en.wikipedia.org/wiki/Golden_Jubilee_Museum_of_Agriculture", 
            "lat": 14.118935, 
            "lon": 100.619348, 
            "id": "wiki_37", 
            "title": "Golden Jubilee Museum of Agriculture"
        }, 
        {
            "url": "https://en.wikipedia.org/wiki/Imperial_War_Museum_Duxford", 
            "lat": 52.09305573, 
            "lon": 0.12944445, 
            "id": "wiki_38", 
            "title": "Imperial War Museum Duxford"
        }, 
        {
            "url": "https://en.wikipedia.org/wiki/Thai_Labour_Museum", 
            "lat": 13.753144, 
            "lon": 100.549382, 
            "id": "wiki_39", 
            "title": "Thai Labour Museum"
        }, 
        {
            "url": "https://en.wikipedia.org/wiki/Archaeology_Museum,_Sogamoso", 
            "lat": 5.70944444, 
            "lon": -72.92416667, 
            "id": "wiki_40", 
            "title": "Archaeology Museum, Sogamoso"
        }, 
        {
            "url": "https://en.wikipedia.org/wiki/ABBA:_The_Museum", 
            "lat": 59.325, 
            "lon": 18.09638889, 
            "id": "wiki_41", 
            "title": "ABBA: The Museum"
        }, 
        {
            "url": "https://en.wikipedia.org/wiki/Museum_of_Fine_Arts,_Boston", 
            "lat": 42.33916667, 
            "lon": -71.09416667, 
            "id": "wiki_42", 
            "title": "Museum of Fine Arts, Boston"
        }, 
        {
            "url": "https://en.wikipedia.org/wiki/Metropolitan_Museum_of_Art", 
            "lat": 40.77891, 
            "lon": -73.96367, 
            "id": "wiki_43", 
            "title": "Metropolitan Museum of Art"
        }, 
        {
            "url": "https://en.wikipedia.org/wiki/School_of_the_Museum_of_Fine_Arts,_Boston", 
            "lat": 42.33856, 
            "lon": -71.09676, 
            "id": "wiki_44", 
            "title": "School of the Museum of Fine Arts, Boston"
        }, 
        {
            "url": "https://en.wikipedia.org/wiki/Solomon_R._Guggenheim_Museum", 
            "lat": 40.782975, 
            "lon": -73.958992, 
            "id": "wiki_45", 
            "title": "Solomon R. Guggenheim Museum"
        }, 
        {
            "url": "https://en.wikipedia.org/wiki/Malacca_UMNO_Museum", 
            "lat": 2.19194436, 
            "lon": 102.24891663, 
            "id": "wiki_46", 
            "title": "Malacca UMNO Museum"
        }, 
        {
            "url": "https://en.wikipedia.org/wiki/G\u00f6teborg_City_Museum", 
            "lat": 57.70638889, 
            "lon": 11.96333333, 
            "id": "wiki_47", 
            "title": "G\u00f6teborg City Museum"
        }, 
        {
            "url": "https://en.wikipedia.org/wiki/Bostanl\u0131_Open-air_Archaeological_Museum", 
            "lat": 38.45527778, 
            "lon": 27.09888889, 
            "id": "wiki_48", 
            "title": "Bostanl\u0131 Open-air Archaeological Museum"
        }, 
        {
            "url": "https://en.wikipedia.org/wiki/Writers'_Museum", 
            "lat": 55.9497, 
            "lon": -3.1937, 
            "id": "wiki_49", 
            "title": "Writers' Museum"
        }, 
        {
            "url": "https://en.wikipedia.org/wiki/Churchill_War_Rooms", 
            "lat": 51.50208333, 
            "lon": -0.12902778, 
            "id": "wiki_50", 
            "title": "Churchill War Rooms"
        }, 
        {
            "url": "https://en.wikipedia.org/wiki/Gatwick_Aviation_Museum", 
            "lat": 51.15222168, 
            "lon": -0.21555555, 
            "id": "wiki_51", 
            "title": "Gatwick Aviation Museum"
        }, 
        {
            "url": "https://en.wikipedia.org/wiki/Metropolitan_Museum_of_Manila", 
            "lat": 14.562406, 
            "lon": 120.986477, 
            "id": "wiki_52", 
            "title": "Metropolitan Museum of Manila"
        }, 
        {
            "url": "https://en.wikipedia.org/wiki/Danish_Museum_of_Art_&_Design", 
            "lat": 55.68637466, 
            "lon": 12.59335041, 
            "id": "wiki_53", 
            "title": "Danish Museum of Art & Design"
        }, 
        {
            "url": "https://en.wikipedia.org/wiki/American_Legation,_Tangier", 
            "lat": 35.78797531, 
            "lon": -5.8090806, 
            "id": "wiki_54", 
            "title": "American Legation, Tangier"
        }, 
        {
            "url": "https://en.wikipedia.org/wiki/Egyptian_Museum_of_Berlin", 
            "lat": 52.520239, 
            "lon": 13.397741, 
            "id": "wiki_55", 
            "title": "Egyptian Museum of Berlin"
        }, 
        {
            "url": "https://en.wikipedia.org/wiki/Malay_and_Islamic_World_Museum", 
            "lat": 2.19163889, 
            "lon": 102.24986111, 
            "id": "wiki_56", 
            "title": "Malay and Islamic World Museum"
        }, 
        {
            "url": "https://en.wikipedia.org/wiki/Bostanl\u0131_Open-air_Archaeological_Museum", 
            "lat": 38.45527778, 
            "lon": 27.09888889, 
            "id": "wiki_57", 
            "title": "Bostanl\u0131 Open-air Archaeological Museum"
        }, 
        {
            "url": "https://en.wikipedia.org/wiki/Penang_Islamic_Museum", 
            "lat": 5.41566667, 
            "lon": 100.33594444, 
            "id": "wiki_58", 
            "title": "Penang Islamic Museum"
        }, 
        {
            "url": "https://en.wikipedia.org/wiki/Gandhi_Memorial_Museum,_Madurai", 
            "lat": 9.929923, 
            "lon": 78.138593, 
            "id": "wiki_59", 
            "title": "Gandhi Memorial Museum, Madurai"
        }, 
        {
            "url": "https://en.wikipedia.org/wiki/Metropolitan_Museum_of_Manila", 
            "lat": 14.562406, 
            "lon": 120.986477, 
            "id": "wiki_60", 
            "title": "Metropolitan Museum of Manila"
        }, 
        {
            "url": "https://en.wikipedia.org/wiki/Kunsthistorisches_Museum", 
            "lat": 48.2037, 
            "lon": 16.3614, 
            "id": "wiki_61", 
            "title": "Kunsthistorisches Museum"
        }, 
        {
            "url": "https://en.wikipedia.org/wiki/Sarawak_State_Museum", 
            "lat": 1.55472222, 
            "lon": 110.34361111, 
            "id": "wiki_62", 
            "title": "Sarawak State Museum"
        }, 
        {
            "url": "https://en.wikipedia.org/wiki/Danish_Museum_of_Art_&_Design", 
            "lat": 55.68637466, 
            "lon": 12.59335041, 
            "id": "wiki_63", 
            "title": "Danish Museum of Art & Design"
        }, 
        {
            "url": "https://en.wikipedia.org/wiki/Museum_of_Science_and_Industry_(Manchester)", 
            "lat": 53.47694397, 
            "lon": -2.25555563, 
            "id": "wiki_64", 
            "title": "Museum of Science and Industry (Manchester)"
        }, 
        {
            "url": "https://en.wikipedia.org/wiki/Royal_Air_Force_Museum_London", 
            "lat": 51.59888889, 
            "lon": -0.23861111, 
            "id": "wiki_65", 
            "title": "Royal Air Force Museum London"
        }, 
        {
            "url": "https://en.wikipedia.org/wiki/Ardabil_Anthropology_Museum", 
            "lat": 38.2497, 
            "lon": 48.2888, 
            "id": "wiki_66", 
            "title": "Ardabil Anthropology Museum"
        }, 
        {
            "url": "https://en.wikipedia.org/wiki/Red_Castle_Museum", 
            "lat": 32.89583333, 
            "lon": 13.18027778, 
            "id": "wiki_67", 
            "title": "Red Castle Museum"
        }, 
        {
            "url": "https://en.wikipedia.org/wiki/Vale_and_Downland_Museum", 
            "lat": 51.58777778, 
            "lon": -1.42833333, 
            "id": "wiki_68", 
            "title": "Vale and Downland Museum"
        }, 
        {
            "url": "https://en.wikipedia.org/wiki/Computer_History_Museum", 
            "lat": 37.414371, 
            "lon": -122.076817, 
            "id": "wiki_69", 
            "title": "Computer History Museum"
        }, 
        {
            "url": "https://en.wikipedia.org/wiki/National_Museum_of_the_Marine_Corps", 
            "lat": 38.544139, 
            "lon": -77.343361, 
            "id": "wiki_70", 
            "title": "National Museum of the Marine Corps"
        }, 
        {
            "url": "https://en.wikipedia.org/wiki/California_African_American_Museum", 
            "lat": 34.015806, 
            "lon": -118.283465, 
            "id": "wiki_71", 
            "title": "California African American Museum"
        }, 
        {
            "url": "https://en.wikipedia.org/wiki/81st_Street\u2013Museum_of_Natural_History_(IND_Eighth_Avenue_Line)", 
            "lat": 40.781971, 
            "lon": -73.971763, 
            "id": "wiki_72", 
            "title": "81st Street\u2013Museum of Natural History (IND Eighth Avenue Line)"
        }, 
        {
            "url": "https://en.wikipedia.org/wiki/Pergamon_Museum", 
            "lat": 52.52099991, 
            "lon": 13.39599991, 
            "id": "wiki_73", 
            "title": "Pergamon Museum"
        }, 
        {
            "url": "https://en.wikipedia.org/wiki/Museum_of_Buddhist_Art", 
            "lat": 13.733319, 
            "lon": 100.627084, 
            "id": "wiki_74", 
            "title": "Museum of Buddhist Art"
        }, 
        {
            "url": "https://en.wikipedia.org/wiki/Batticaloa_Museum", 
            "lat": 7.71157222, 
            "lon": 81.702175, 
            "id": "wiki_75", 
            "title": "Batticaloa Museum"
        }, 
        {
            "url": "https://en.wikipedia.org/wiki/Brooklyn_Museum", 
            "lat": 40.67130556, 
            "lon": -73.96375, 
            "id": "wiki_76", 
            "title": "Brooklyn Museum"
        }, 
        {
            "url": "https://en.wikipedia.org/wiki/Jewish_Museum_of_Maryland", 
            "lat": 39.29, 
            "lon": -76.6012, 
            "id": "wiki_77", 
            "title": "Jewish Museum of Maryland"
        }, 
        {
            "url": "https://en.wikipedia.org/wiki/De_Young_(museum)", 
            "lat": 37.771389, 
            "lon": -122.468611, 
            "id": "wiki_78", 
            "title": "De Young (museum)"
        }, 
        {
            "url": "https://en.wikipedia.org/wiki/Ethnographic_Museum,_Belgrade", 
            "lat": 44.8198, 
            "lon": 20.4563, 
            "id": "wiki_79", 
            "title": "Ethnographic Museum, Belgrade"
        }, 
        {
            "url": "https://en.wikipedia.org/wiki/Herbert_F._Johnson_Museum_of_Art", 
            "lat": 42.45084, 
            "lon": -76.486463, 
            "id": "wiki_80", 
            "title": "Herbert F. Johnson Museum of Art"
        }, 
        {
            "url": "https://en.wikipedia.org/wiki/Royal_Elephant_National_Museum", 
            "lat": 13.773754, 
            "lon": 100.514447, 
            "id": "wiki_81", 
            "title": "Royal Elephant National Museum"
        }, 
        {
            "url": "https://en.wikipedia.org/wiki/Jewish_Museum_of_Maryland", 
            "lat": 39.29, 
            "lon": -76.6012, 
            "id": "wiki_82", 
            "title": "Jewish Museum of Maryland"
        }, 
        {
            "url": "https://en.wikipedia.org/wiki/Thorvaldsen_Museum", 
            "lat": 55.6767, 
            "lon": 12.5783, 
            "id": "wiki_83", 
            "title": "Thorvaldsen Museum"
        }, 
        {
            "url": "https://en.wikipedia.org/wiki/De_Young_(museum)", 
            "lat": 37.771389, 
            "lon": -122.468611, 
            "id": "wiki_84", 
            "title": "De Young (museum)"
        }, 
        {
            "url": "https://en.wikipedia.org/wiki/Brooklyn_Museum", 
            "lat": 40.67130556, 
            "lon": -73.96375, 
            "id": "wiki_85", 
            "title": "Brooklyn Museum"
        }, 
        {
            "url": "https://en.wikipedia.org/wiki/Ethnographic_Museum,_Belgrade", 
            "lat": 44.8198, 
            "lon": 20.4563, 
            "id": "wiki_86", 
            "title": "Ethnographic Museum, Belgrade"
        }, 
        {
            "url": "https://en.wikipedia.org/wiki/Herbert_F._Johnson_Museum_of_Art", 
            "lat": 42.45084, 
            "lon": -76.486463, 
            "id": "wiki_87", 
            "title": "Herbert F. Johnson Museum of Art"
        }, 
        {
            "url": "https://en.wikipedia.org/wiki/Jewish_Museum_London", 
            "lat": 51.536944, 
            "lon": -0.144444, 
            "id": "wiki_88", 
            "title": "Jewish Museum London"
        }, 
        {
            "url": "https://en.wikipedia.org/wiki/Royal_Elephant_National_Museum", 
            "lat": 13.773754, 
            "lon": 100.514447, 
            "id": "wiki_89", 
            "title": "Royal Elephant National Museum"
        }, 
        {
            "url": "https://en.wikipedia.org/wiki/Samphanthawong_Museum", 
            "lat": 13.73692036, 
            "lon": 100.51097107, 
            "id": "wiki_90", 
            "title": "Samphanthawong Museum"
        }, 
        {
            "url": "https://en.wikipedia.org/wiki/\u00c7orum_Archaeological_Museum", 
            "lat": 40.5411, 
            "lon": 34.9511, 
            "id": "wiki_91", 
            "title": "\u00c7orum Archaeological Museum"
        }, 
        {
            "url": "https://en.wikipedia.org/wiki/Museum_Wiesbaden", 
            "lat": 50.0775, 
            "lon": 8.24583333, 
            "id": "wiki_92", 
            "title": "Museum Wiesbaden"
        }, 
        {
            "url": "https://en.wikipedia.org/wiki/National_Gandhi_Museum", 
            "lat": 29.07444444, 
            "lon": 77.41611111, 
            "id": "wiki_93", 
            "title": "National Gandhi Museum"
        }, 
        {
            "url": "https://en.wikipedia.org/wiki/Saint_Louis_Art_Museum", 
            "lat": 38.63944444, 
            "lon": -90.29444444, 
            "id": "wiki_94", 
            "title": "Saint Louis Art Museum"
        }, 
        {
            "url": "https://en.wikipedia.org/wiki/Historic_Ships_in_Baltimore", 
            "lat": 39.2861, 
            "lon": -76.6124, 
            "id": "wiki_95", 
            "title": "Historic Ships in Baltimore"
        }, 
        {
            "url": "https://en.wikipedia.org/wiki/Museum_of_Brands,_Packaging_&_Advertising", 
            "lat": 51.516306, 
            "lon": -0.211033, 
            "id": "wiki_96", 
            "title": "Museum of Brands, Packaging & Advertising"
        }, 
        {
            "url": "https://en.wikipedia.org/wiki/Carpet_Museum_of_Iran", 
            "lat": 35.7142, 
            "lon": 51.3908, 
            "id": "wiki_97", 
            "title": "Carpet Museum of Iran"
        }, 
        {
            "url": "https://en.wikipedia.org/wiki/APEX_Museum", 
            "lat": 33.75527778, 
            "lon": -84.38305556, 
            "id": "wiki_98", 
            "title": "APEX Museum"
        }, 
        {
            "url": "https://en.wikipedia.org/wiki/Calico_Museum_of_Textiles", 
            "lat": 23.05333333, 
            "lon": 72.59222222, 
            "id": "wiki_99", 
            "title": "Calico Museum of Textiles"
        }, 
        {
            "url": "https://en.wikipedia.org/wiki/Julia_A._Purnell_Museum", 
            "lat": 38.17555556, 
            "lon": -75.39694444, 
            "id": "wiki_100", 
            "title": "Julia A. Purnell Museum"
        }, 
        {
            "url": "https://en.wikipedia.org/wiki/Verdant_Works", 
            "lat": 56.46170044, 
            "lon": -2.98340011, 
            "id": "wiki_101", 
            "title": "Verdant Works"
        }, 
        {
            "url": "https://en.wikipedia.org/wiki/Museum_of_the_Great_Western_Railway", 
            "lat": 51.5629, 
            "lon": -1.7949, 
            "id": "wiki_102", 
            "title": "Museum of the Great Western Railway"
        }, 
        {
            "url": "https://en.wikipedia.org/wiki/Technical_Museum,_Zagreb", 
            "lat": 45.803493, 
            "lon": 15.964508, 
            "id": "wiki_103", 
            "title": "Technical Museum, Zagreb"
        }, 
        {
            "url": "https://en.wikipedia.org/wiki/King_Prajadhipok_Museum", 
            "lat": 13.7560386, 
            "lon": 100.506507, 
            "id": "wiki_104", 
            "title": "King Prajadhipok Museum"
        }, 
        {
            "url": "https://en.wikipedia.org/wiki/Hackney_Museum", 
            "lat": 51.54450833, 
            "lon": -0.055825, 
            "id": "wiki_105", 
            "title": "Hackney Museum"
        }, 
        {
            "url": "https://en.wikipedia.org/wiki/Museum_of_Comparative_Zoology", 
            "lat": 42.37847222, 
            "lon": -71.11555556, 
            "id": "wiki_106", 
            "title": "Museum of Comparative Zoology"
        }, 
        {
            "url": "https://en.wikipedia.org/wiki/Queensland_Museum", 
            "lat": -27.472886, 
            "lon": 153.017916, 
            "id": "wiki_107", 
            "title": "Queensland Museum"
        }, 
        {
            "url": "https://en.wikipedia.org/wiki/National_Railway_Museum,_Port_Adelaide", 
            "lat": -34.84555556, 
            "lon": 138.50861111, 
            "id": "wiki_108", 
            "title": "National Railway Museum, Port Adelaide"
        }, 
        {
            "url": "https://en.wikipedia.org/wiki/Museum_of_Islamic_Art,_Doha", 
            "lat": 25.29527778, 
            "lon": 51.53916667, 
            "id": "wiki_109", 
            "title": "Museum of Islamic Art, Doha"
        }, 
        {
            "url": "https://en.wikipedia.org/wiki/National_Museum,_Krak\u00f3w", 
            "lat": 50.06, 
            "lon": 19.92388889, 
            "id": "wiki_110", 
            "title": "National Museum, Krak\u00f3w"
        }, 
        {
            "url": "https://en.wikipedia.org/wiki/Lok_Virsa_Museum", 
            "lat": 33.68333333, 
            "lon": 73.06666667, 
            "id": "wiki_111", 
            "title": "Lok Virsa Museum"
        }, 
        {
            "url": "https://en.wikipedia.org/wiki/R\u00f6hsska_Museum", 
            "lat": 57.7, 
            "lon": 11.97333333, 
            "id": "wiki_112", 
            "title": "R\u00f6hsska Museum"
        }, 
        {
            "url": "https://en.wikipedia.org/wiki/Pakistan_Maritime_Museum", 
            "lat": 24.8868, 
            "lon": 67.0904, 
            "id": "wiki_113", 
            "title": "Pakistan Maritime Museum"
        }, 
        {
            "url": "https://en.wikipedia.org/wiki/Charles_Aznavour_Museum", 
            "lat": 40.19305556, 
            "lon": 44.51472222, 
            "id": "wiki_114", 
            "title": "Charles Aznavour Museum"
        }, 
        {
            "url": "https://en.wikipedia.org/wiki/Museum_of_Applied_Arts_(Budapest)", 
            "lat": 47.48611069, 
            "lon": 19.06833267, 
            "id": "wiki_115", 
            "title": "Museum of Applied Arts (Budapest)"
        }, 
        {
            "url": "https://en.wikipedia.org/wiki/Museum_of_Arts_and_Design", 
            "lat": 40.7675, 
            "lon": -73.98194444, 
            "id": "wiki_116", 
            "title": "Museum of Arts and Design"
        }, 
        {
            "url": "https://en.wikipedia.org/wiki/Natural_History_Museum_of_Denmark", 
            "lat": 55.687506, 
            "lon": 12.575459, 
            "id": "wiki_117", 
            "title": "Natural History Museum of Denmark"
        }, 
        {
            "url": "https://en.wikipedia.org/wiki/Tel_Aviv_Museum_of_Art", 
            "lat": 32.07744167, 
            "lon": 34.78684722, 
            "id": "wiki_118", 
            "title": "Tel Aviv Museum of Art"
        }, 
        {
            "url": "https://en.wikipedia.org/wiki/Museum_of_Science_(Boston)", 
            "lat": 42.367778, 
            "lon": -71.070997, 
            "id": "wiki_119", 
            "title": "Museum of Science (Boston)"
        }, 
        {
            "url": "https://en.wikipedia.org/wiki/National_Archaeological_Museum,_Athens", 
            "lat": 37.98917007, 
            "lon": 23.73182678, 
            "id": "wiki_120", 
            "title": "National Archaeological Museum, Athens"
        }, 
        {
            "url": "https://en.wikipedia.org/wiki/Museum_of_the_Great_Western_Railway", 
            "lat": 51.5629, 
            "lon": -1.7949, 
            "id": "wiki_121", 
            "title": "Museum of the Great Western Railway"
        }, 
        {
            "url": "https://en.wikipedia.org/wiki/Museum_of_Fine_Arts,_Houston", 
            "lat": 29.72569444, 
            "lon": -95.39041667, 
            "id": "wiki_122", 
            "title": "Museum of Fine Arts, Houston"
        }, 
        {
            "url": "https://en.wikipedia.org/wiki/Louvre", 
            "lat": 48.86111111, 
            "lon": 2.33638889, 
            "id": "wiki_123", 
            "title": "Louvre"
        }, 
        {
            "url": "https://en.wikipedia.org/wiki/King_Prajadhipok_Museum", 
            "lat": 13.7560386, 
            "lon": 100.506507, 
            "id": "wiki_124", 
            "title": "King Prajadhipok Museum"
        }, 
        {
            "url": "https://en.wikipedia.org/wiki/St_Mungo_Museum_of_Religious_Life_and_Art", 
            "lat": 55.8625, 
            "lon": -4.2363, 
            "id": "wiki_125", 
            "title": "St Mungo Museum of Religious Life and Art"
        }, 
        {
            "url": "https://en.wikipedia.org/wiki/Museum_of_Comparative_Zoology", 
            "lat": 42.37847222, 
            "lon": -71.11555556, 
            "id": "wiki_126", 
            "title": "Museum of Comparative Zoology"
        }, 
        {
            "url": "https://en.wikipedia.org/wiki/Walters_Art_Museum", 
            "lat": 39.29666667, 
            "lon": -76.61611111, 
            "id": "wiki_127", 
            "title": "Walters Art Museum"
        }, 
        {
            "url": "https://en.wikipedia.org/wiki/National_Railway_Museum,_Port_Adelaide", 
            "lat": -34.84555556, 
            "lon": 138.50861111, 
            "id": "wiki_128", 
            "title": "National Railway Museum, Port Adelaide"
        }, 
        {
            "url": "https://en.wikipedia.org/wiki/SeaCity_Museum", 
            "lat": 50.908021, 
            "lon": -1.407664, 
            "id": "wiki_129", 
            "title": "SeaCity Museum"
        }, 
        {
            "url": "https://en.wikipedia.org/wiki/Malacca_Transportation_Museum", 
            "lat": 2.28263889, 
            "lon": 102.27505556, 
            "id": "wiki_130", 
            "title": "Malacca Transportation Museum"
        }, 
        {
            "url": "https://en.wikipedia.org/wiki/Swedish_American_Museum", 
            "lat": 41.97666, 
            "lon": -87.66814, 
            "id": "wiki_131", 
            "title": "Swedish American Museum"
        }, 
        {
            "url": "https://en.wikipedia.org/wiki/Croatian_Natural_History_Museum", 
            "lat": 45.817115, 
            "lon": 15.972314, 
            "id": "wiki_132", 
            "title": "Croatian Natural History Museum"
        }, 
        {
            "url": "https://en.wikipedia.org/wiki/Malacca_Islamic_Museum", 
            "lat": 2.19241667, 
            "lon": 102.24866667, 
            "id": "wiki_133", 
            "title": "Malacca Islamic Museum"
        }, 
        {
            "url": "https://en.wikipedia.org/wiki/Pickford's_House_Museum", 
            "lat": 52.9241, 
            "lon": -1.4864, 
            "id": "wiki_134", 
            "title": "Pickford's House Museum"
        }, 
        {
            "url": "https://en.wikipedia.org/wiki/Canadian_Museum_of_History", 
            "lat": 45.42972222, 
            "lon": -75.70888889, 
            "id": "wiki_135", 
            "title": "Canadian Museum of History"
        }, 
        {
            "url": "https://en.wikipedia.org/wiki/International_Buddhist_Museum", 
            "lat": 7.29472222, 
            "lon": 80.64083333, 
            "id": "wiki_136", 
            "title": "International Buddhist Museum"
        }, 
        {
            "url": "https://en.wikipedia.org/wiki/Napier_Museum", 
            "lat": 8.50861111, 
            "lon": 76.955, 
            "id": "wiki_137", 
            "title": "Napier Museum"
        }, 
        {
            "url": "https://en.wikipedia.org/wiki/Philadelphia_Museum_of_Art", 
            "lat": 39.9659996, 
            "lon": -75.18099976, 
            "id": "wiki_138", 
            "title": "Philadelphia Museum of Art"
        }, 
        {
            "url": "https://en.wikipedia.org/wiki/Glasgow_Museum_of_Transport", 
            "lat": 55.8687, 
            "lon": -4.295, 
            "id": "wiki_139", 
            "title": "Glasgow Museum of Transport"
        }, 
        {
            "url": "https://en.wikipedia.org/wiki/The_Children's_Museum_of_Indianapolis", 
            "lat": 39.81083333, 
            "lon": -86.1575, 
            "id": "wiki_140", 
            "title": "The Children's Museum of Indianapolis"
        }, 
        {
            "url": "https://en.wikipedia.org/wiki/Archaeological_Museum_of_Olympia", 
            "lat": 37.64341736, 
            "lon": 21.62938881, 
            "id": "wiki_141", 
            "title": "Archaeological Museum of Olympia"
        }, 
        {
            "url": "https://en.wikipedia.org/wiki/Museum_of_Contemporary_Art_San_Diego", 
            "lat": 32.84444444, 
            "lon": -117.27805556, 
            "id": "wiki_142", 
            "title": "Museum of Contemporary Art San Diego"
        }, 
        {
            "url": "https://en.wikipedia.org/wiki/Pickford's_House_Museum", 
            "lat": 52.9241, 
            "lon": -1.4864, 
            "id": "wiki_143", 
            "title": "Pickford's House Museum"
        }, 
        {
            "url": "https://en.wikipedia.org/wiki/Frazier_History_Museum", 
            "lat": 38.25784722, 
            "lon": -85.76447222, 
            "id": "wiki_144", 
            "title": "Frazier History Museum"
        }, 
        {
            "url": "https://en.wikipedia.org/wiki/International_Buddhist_Museum", 
            "lat": 7.29472222, 
            "lon": 80.64083333, 
            "id": "wiki_145", 
            "title": "International Buddhist Museum"
        }, 
        {
            "url": "https://en.wikipedia.org/wiki/Canadian_Museum_of_History", 
            "lat": 45.42972222, 
            "lon": -75.70888889, 
            "id": "wiki_146", 
            "title": "Canadian Museum of History"
        }, 
        {
            "url": "https://en.wikipedia.org/wiki/Philadelphia_Museum_of_Art", 
            "lat": 39.9659996, 
            "lon": -75.18099976, 
            "id": "wiki_147", 
            "title": "Philadelphia Museum of Art"
        }, 
        {
            "url": "https://en.wikipedia.org/wiki/Temple_of_the_Tooth_Museum", 
            "lat": 7.29388905, 
            "lon": 80.63861084, 
            "id": "wiki_148", 
            "title": "Temple of the Tooth Museum"
        }, 
        {
            "url": "https://en.wikipedia.org/wiki/Pitt_Rivers_Museum", 
            "lat": 51.7586, 
            "lon": -1.255, 
            "id": "wiki_149", 
            "title": "Pitt Rivers Museum"
        }, 
        {
            "url": "https://en.wikipedia.org/wiki/Texas_Military_Forces_Museum", 
            "lat": 30.31361111, 
            "lon": -97.76111111, 
            "id": "wiki_150", 
            "title": "Texas Military Forces Museum"
        }, 
        {
            "url": "https://en.wikipedia.org/wiki/National_Cryptologic_Museum", 
            "lat": 39.1148, 
            "lon": -76.7748, 
            "id": "wiki_151", 
            "title": "National Cryptologic Museum"
        }, 
        {
            "url": "https://en.wikipedia.org/wiki/Baltimore_Museum_of_Industry", 
            "lat": 39.27388889, 
            "lon": -76.60138889, 
            "id": "wiki_152", 
            "title": "Baltimore Museum of Industry"
        }, 
        {
            "url": "https://en.wikipedia.org/wiki/Pennsylvania_Military_Museum", 
            "lat": 40.7819, 
            "lon": -77.7953, 
            "id": "wiki_153", 
            "title": "Pennsylvania Military Museum"
        }, 
        {
            "url": "https://en.wikipedia.org/wiki/National_Etruscan_Museum", 
            "lat": 41.918375, 
            "lon": 12.477657, 
            "id": "wiki_154", 
            "title": "National Etruscan Museum"
        }, 
        {
            "url": "https://en.wikipedia.org/wiki/Soldiers_of_Oxfordshire_Museum", 
            "lat": 51.8483, 
            "lon": -1.3572, 
            "id": "wiki_155", 
            "title": "Soldiers of Oxfordshire Museum"
        }, 
        {
            "url": "https://en.wikipedia.org/wiki/Powerhouse_Museum", 
            "lat": -33.877898, 
            "lon": 151.199573, 
            "id": "wiki_156", 
            "title": "Powerhouse Museum"
        }, 
        {
            "url": "https://en.wikipedia.org/wiki/Slovenian_Alpine_Museum", 
            "lat": 46.45798889, 
            "lon": 13.93609167, 
            "id": "wiki_157", 
            "title": "Slovenian Alpine Museum"
        }, 
        {
            "url": "https://en.wikipedia.org/wiki/Whitney_Museum_of_American_Art", 
            "lat": 40.7396, 
            "lon": -74.0089, 
            "id": "wiki_158", 
            "title": "Whitney Museum of American Art"
        }, 
        {
            "url": "https://en.wikipedia.org/wiki/State_Museum_of_Natural_History_Stuttgart", 
            "lat": 48.8053, 
            "lon": 9.1903, 
            "id": "wiki_159", 
            "title": "State Museum of Natural History Stuttgart"
        }, 
        {
            "url": "https://en.wikipedia.org/wiki/Museum_of_Modern_Art_(Ljubljana)", 
            "lat": 46.05319722, 
            "lon": 14.4988, 
            "id": "wiki_160", 
            "title": "Museum of Modern Art (Ljubljana)"
        }, 
        {
            "url": "https://en.wikipedia.org/wiki/Turkmen_Museum_of_Fine_Arts", 
            "lat": 37.93527778, 
            "lon": 58.37472222, 
            "id": "wiki_161", 
            "title": "Turkmen Museum of Fine Arts"
        }, 
        {
            "url": "https://en.wikipedia.org/wiki/University_of_Kentucky_Art_Museum", 
            "lat": 38.037614, 
            "lon": -84.501171, 
            "id": "wiki_162", 
            "title": "University of Kentucky Art Museum"
        }, 
        {
            "url": "https://en.wikipedia.org/wiki/National_railway_museum,_Kadugannawa", 
            "lat": 7.25761111, 
            "lon": 80.52086111, 
            "id": "wiki_163", 
            "title": "National railway museum, Kadugannawa"
        }, 
        {
            "url": "https://en.wikipedia.org/wiki/Museum_of_Modern_Art,_Antwerp", 
            "lat": 51.211111, 
            "lon": 4.389722, 
            "id": "wiki_164", 
            "title": "Museum of Modern Art, Antwerp"
        }, 
        {
            "url": "https://en.wikipedia.org/wiki/Girdletree_Barnes_Bank", 
            "lat": 38.09378333, 
            "lon": -75.39756944, 
            "id": "wiki_165", 
            "title": "Girdletree Barnes Bank"
        }, 
        {
            "url": "https://en.wikipedia.org/wiki/The_Clemente_Museum", 
            "lat": 40.4625, 
            "lon": -79.9678, 
            "id": "wiki_166", 
            "title": "The Clemente Museum"
        }, 
        {
            "url": "https://en.wikipedia.org/wiki/Laguna_Art_Museum", 
            "lat": 33.5436, 
            "lon": -117.788, 
            "id": "wiki_167", 
            "title": "Laguna Art Museum"
        }, 
        {
            "url": "https://en.wikipedia.org/wiki/Pasadena_Museum_of_California_Art", 
            "lat": 34.1469, 
            "lon": -118.1402, 
            "id": "wiki_168", 
            "title": "Pasadena Museum of California Art"
        }, 
        {
            "url": "https://en.wikipedia.org/wiki/Calvin_B._Taylor_House", 
            "lat": 38.32722222, 
            "lon": -75.22041667, 
            "id": "wiki_169", 
            "title": "Calvin B. Taylor House"
        }, 
        {
            "url": "https://en.wikipedia.org/wiki/National_Great_Blacks_In_Wax_Museum", 
            "lat": 39.3121, 
            "lon": -76.5968, 
            "id": "wiki_170", 
            "title": "National Great Blacks In Wax Museum"
        }, 
        {
            "url": "https://en.wikipedia.org/wiki/Royal_Museum_of_Fine_Arts_Antwerp", 
            "lat": 51.20833333, 
            "lon": 4.39472222, 
            "id": "wiki_171", 
            "title": "Royal Museum of Fine Arts Antwerp"
        }, 
        {
            "url": "https://en.wikipedia.org/wiki/Heraklion_Archaeological_Museum", 
            "lat": 35.3387436, 
            "lon": 25.1369119, 
            "id": "wiki_172", 
            "title": "Heraklion Archaeological Museum"
        }, 
        {
            "url": "https://en.wikipedia.org/wiki/Turkish_and_Islamic_Arts_Museum", 
            "lat": 41.0063, 
            "lon": 28.97456111, 
            "id": "wiki_173", 
            "title": "Turkish and Islamic Arts Museum"
        }, 
        {
            "url": "https://en.wikipedia.org/wiki/National_Great_Blacks_In_Wax_Museum", 
            "lat": 39.3121, 
            "lon": -76.5968, 
            "id": "wiki_174", 
            "title": "National Great Blacks In Wax Museum"
        }, 
        {
            "url": "https://en.wikipedia.org/wiki/Turkish_and_Islamic_Arts_Museum", 
            "lat": 41.0063, 
            "lon": 28.97456111, 
            "id": "wiki_175", 
            "title": "Turkish and Islamic Arts Museum"
        }, 
        {
            "url": "https://en.wikipedia.org/wiki/Marianna_Kistler_Beach_Museum_of_Art", 
            "lat": 39.18682222, 
            "lon": -96.57883611, 
            "id": "wiki_176", 
            "title": "Marianna Kistler Beach Museum of Art"
        }, 
        {
            "url": "https://en.wikipedia.org/wiki/Lacrosse_Museum_and_National_Hall_of_Fame", 
            "lat": 39.33472222, 
            "lon": -76.62194444, 
            "id": "wiki_177", 
            "title": "Lacrosse Museum and National Hall of Fame"
        }, 
        {
            "url": "https://en.wikipedia.org/wiki/Arken_Museum_of_Modern_Art", 
            "lat": 55.60611111, 
            "lon": 12.3875, 
            "id": "wiki_178", 
            "title": "Arken Museum of Modern Art"
        }, 
        {
            "url": "https://en.wikipedia.org/wiki/Kelham_Island_Museum", 
            "lat": 53.38950348, 
            "lon": -1.47234499, 
            "id": "wiki_179", 
            "title": "Kelham Island Museum"
        }, 
        {
            "url": "https://en.wikipedia.org/wiki/Bank_of_England_Museum", 
            "lat": 51.51405716, 
            "lon": -0.088059, 
            "id": "wiki_180", 
            "title": "Bank of England Museum"
        }, 
        {
            "url": "https://en.wikipedia.org/wiki/Natural_History_Museum_of_Geneva", 
            "lat": 46.1989, 
            "lon": 6.1583, 
            "id": "wiki_181", 
            "title": "Natural History Museum of Geneva"
        }, 
        {
            "url": "https://en.wikipedia.org/wiki/Malaysia_Youth_Museum", 
            "lat": 2.19161111, 
            "lon": 102.24952778, 
            "id": "wiki_182", 
            "title": "Malaysia Youth Museum"
        }, 
        {
            "url": "https://en.wikipedia.org/wiki/Museum_of_Copenhagen", 
            "lat": 55.67234039, 
            "lon": 12.55345058, 
            "id": "wiki_183", 
            "title": "Museum of Copenhagen"
        }, 
        {
            "url": "https://en.wikipedia.org/wiki/Everson_Museum_of_Art", 
            "lat": 43.044732, 
            "lon": -76.146848, 
            "id": "wiki_184", 
            "title": "Everson Museum of Art"
        }, 
        {
            "url": "https://en.wikipedia.org/wiki/Danish_Jewish_Museum", 
            "lat": 55.67416667, 
            "lon": 12.58222222, 
            "id": "wiki_185", 
            "title": "Danish Jewish Museum"
        }, 
        {
            "url": "https://en.wikipedia.org/wiki/Danish_Revue_Museum", 
            "lat": 55.6755, 
            "lon": 12.5316, 
            "id": "wiki_186", 
            "title": "Danish Revue Museum"
        }, 
        {
            "url": "https://en.wikipedia.org/wiki/Girdletree_Barnes_Bank", 
            "lat": 38.09378333, 
            "lon": -75.39756944, 
            "id": "wiki_187", 
            "title": "Girdletree Barnes Bank"
        }, 
        {
            "url": "https://en.wikipedia.org/wiki/Ethnography_Museum_of_Ankara", 
            "lat": 39.932668, 
            "lon": 32.854894, 
            "id": "wiki_188", 
            "title": "Ethnography Museum of Ankara"
        }, 
        {
            "url": "https://en.wikipedia.org/wiki/Museum_of_African_Art,_Belgrade", 
            "lat": 44.789054, 
            "lon": 20.434974, 
            "id": "wiki_189", 
            "title": "Museum of African Art, Belgrade"
        }, 
        {
            "url": "https://en.wikipedia.org/wiki/Agricultural_Museum,_Egypt", 
            "lat": 30.0466671, 
            "lon": 31.20888901, 
            "id": "wiki_190", 
            "title": "Agricultural Museum, Egypt"
        }, 
        {
            "url": "https://en.wikipedia.org/wiki/TCDD_Open_Air_Steam_Locomotive_Museum", 
            "lat": 39.932662, 
            "lon": 32.846316, 
            "id": "wiki_191", 
            "title": "TCDD Open Air Steam Locomotive Museum"
        }, 
        {
            "url": "https://en.wikipedia.org/wiki/Laguna_Art_Museum", 
            "lat": 33.5436, 
            "lon": -117.788, 
            "id": "wiki_192", 
            "title": "Laguna Art Museum"
        }, 
        {
            "url": "https://en.wikipedia.org/wiki/Wallraf-Richartz_Museum", 
            "lat": 50.9375, 
            "lon": 6.95861101, 
            "id": "wiki_193", 
            "title": "Wallraf-Richartz Museum"
        }, 
        {
            "url": "https://en.wikipedia.org/wiki/Galveston_Railroad_Museum", 
            "lat": 29.30638889, 
            "lon": -94.79777778, 
            "id": "wiki_194", 
            "title": "Galveston Railroad Museum"
        }, 
        {
            "url": "https://en.wikipedia.org/wiki/Kunstgewerbemuseum_Berlin", 
            "lat": 52.5097, 
            "lon": 13.3674, 
            "id": "wiki_195", 
            "title": "Kunstgewerbemuseum Berlin"
        }, 
        {
            "url": "https://en.wikipedia.org/wiki/Victoria_and_Albert_Museum", 
            "lat": 51.496302, 
            "lon": -0.172078, 
            "id": "wiki_196", 
            "title": "Victoria and Albert Museum"
        }, 
        {
            "url": "https://en.wikipedia.org/wiki/Sergei_Parajanov_Museum", 
            "lat": 40.178773, 
            "lon": 44.500124, 
            "id": "wiki_197", 
            "title": "Sergei Parajanov Museum"
        }, 
        {
            "url": "https://en.wikipedia.org/wiki/M._K._\u010ciurlionis_National_Art_Museum", 
            "lat": 54.9, 
            "lon": 23.91138889, 
            "id": "wiki_198", 
            "title": "M. K. \u010ciurlionis National Art Museum"
        }, 
        {
            "url": "https://en.wikipedia.org/wiki/Norwegian_Museum_of_Science_and_Technology", 
            "lat": 59.96655273, 
            "lon": 10.78278065, 
            "id": "wiki_199", 
            "title": "Norwegian Museum of Science and Technology"
        }, 
        {
            "url": "https://en.wikipedia.org/wiki/National_Museum_of_Slovenia", 
            "lat": 46.05194444, 
            "lon": 14.49972222, 
            "id": "wiki_200", 
            "title": "National Museum of Slovenia"
        }, 
        {
            "url": "https://en.wikipedia.org/wiki/Museum_of_Contemporary_Art,_Belgrade", 
            "lat": 44.81944444, 
            "lon": 20.44222222, 
            "id": "wiki_201", 
            "title": "Museum of Contemporary Art, Belgrade"
        }, 
        {
            "url": "https://en.wikipedia.org/wiki/Museum_of_the_Filipino_People", 
            "lat": 14.58527778, 
            "lon": 120.98083333, 
            "id": "wiki_202", 
            "title": "Museum of the Filipino People"
        }, 
        {
            "url": "https://en.wikipedia.org/wiki/Museum_of_London", 
            "lat": 51.51770556, 
            "lon": -0.09680833, 
            "id": "wiki_203", 
            "title": "Museum of London"
        }, 
        {
            "url": "https://en.wikipedia.org/wiki/University_of_Pennsylvania_Museum_of_Archaeology_and_Anthropology", 
            "lat": 39.949, 
            "lon": -75.1911, 
            "id": "wiki_204", 
            "title": "University of Pennsylvania Museum of Archaeology and Anthropology"
        }, 
        {
            "url": "https://en.wikipedia.org/wiki/Greater_Manchester_Police_Museum", 
            "lat": 53.482444, 
            "lon": -2.32612, 
            "id": "wiki_205", 
            "title": "Greater Manchester Police Museum"
        }, 
        {
            "url": "https://en.wikipedia.org/wiki/King_Rama_VI_Museum", 
            "lat": 13.746555, 
            "lon": 100.495141, 
            "id": "wiki_206", 
            "title": "King Rama VI Museum"
        }, 
        {
            "url": "https://en.wikipedia.org/wiki/Museum_of_Islamic_Ceramics", 
            "lat": 30.0552, 
            "lon": 31.2257, 
            "id": "wiki_207", 
            "title": "Museum of Islamic Ceramics"
        }, 
        {
            "url": "https://en.wikipedia.org/wiki/National_Museum_of_Photography_(Denmark)", 
            "lat": 55.67527771, 
            "lon": 12.58055592, 
            "id": "wiki_208", 
            "title": "National Museum of Photography (Denmark)"
        }, 
        {
            "url": "https://en.wikipedia.org/wiki/Museum_Island", 
            "lat": 52.52138901, 
            "lon": 13.3955555, 
            "id": "wiki_209", 
            "title": "Museum Island"
        }, 
        {
            "url": "https://en.wikipedia.org/wiki/Sherlock_Holmes_Museum", 
            "lat": 51.5237, 
            "lon": -0.1585, 
            "id": "wiki_210", 
            "title": "Sherlock Holmes Museum"
        }, 
        {
            "url": "https://en.wikipedia.org/wiki/Istanbul_Aviation_Museum", 
            "lat": 40.963862, 
            "lon": 28.825765, 
            "id": "wiki_211", 
            "title": "Istanbul Aviation Museum"
        }, 
        {
            "url": "https://en.wikipedia.org/wiki/Tehran_Museum_of_Contemporary_Art", 
            "lat": 35.7112, 
            "lon": 51.3904, 
            "id": "wiki_212", 
            "title": "Tehran Museum of Contemporary Art"
        }, 
        {
            "url": "https://en.wikipedia.org/wiki/Bellingham_Railway_Museum", 
            "lat": 48.750869, 
            "lon": -122.47924, 
            "id": "wiki_213", 
            "title": "Bellingham Railway Museum"
        }, 
        {
            "url": "https://en.wikipedia.org/wiki/Yerevan_History_Museum", 
            "lat": 40.174653, 
            "lon": 44.504306, 
            "id": "wiki_214", 
            "title": "Yerevan History Museum"
        }, 
        {
            "url": "https://en.wikipedia.org/wiki/Tangmere_Military_Aviation_Museum", 
            "lat": 50.8467, 
            "lon": -0.7147, 
            "id": "wiki_215", 
            "title": "Tangmere Military Aviation Museum"
        }, 
        {
            "url": "https://en.wikipedia.org/wiki/Heard_Museum", 
            "lat": 33.47354167, 
            "lon": -112.073694, 
            "id": "wiki_216", 
            "title": "Heard Museum"
        }, 
        {
            "url": "https://en.wikipedia.org/wiki/Sherlock_Holmes_Museum", 
            "lat": 51.5237, 
            "lon": -0.1585, 
            "id": "wiki_217", 
            "title": "Sherlock Holmes Museum"
        }, 
        {
            "url": "https://en.wikipedia.org/wiki/Bishop_Museum", 
            "lat": 21.33333333, 
            "lon": -157.87061667, 
            "id": "wiki_218", 
            "title": "Bishop Museum"
        }, 
        {
            "url": "https://en.wikipedia.org/wiki/National_Museum_of_Photography_(Denmark)", 
            "lat": 55.67527771, 
            "lon": 12.58055592, 
            "id": "wiki_219", 
            "title": "National Museum of Photography (Denmark)"
        }, 
        {
            "url": "https://en.wikipedia.org/wiki/Charles_Dickens_Museum", 
            "lat": 51.523921, 
            "lon": -0.116902, 
            "id": "wiki_220", 
            "title": "Charles Dickens Museum"
        }, 
        {
            "url": "https://en.wikipedia.org/wiki/Royal_Malaysian_Navy_Museum", 
            "lat": 2.19116667, 
            "lon": 102.24663889, 
            "id": "wiki_221", 
            "title": "Royal Malaysian Navy Museum"
        }, 
        {
            "url": "https://en.wikipedia.org/wiki/Education_Museum", 
            "lat": 2.19402778, 
            "lon": 102.24988889, 
            "id": "wiki_222", 
            "title": "Education Museum"
        }, 
        {
            "url": "https://en.wikipedia.org/wiki/Paul_W._Bryant_Museum", 
            "lat": 33.20555556, 
            "lon": -87.53527778, 
            "id": "wiki_223", 
            "title": "Paul W. Bryant Museum"
        }, 
        {
            "url": "https://en.wikipedia.org/wiki/Muscat_Gate_Museum", 
            "lat": 23.6175, 
            "lon": 58.58694444, 
            "id": "wiki_224", 
            "title": "Muscat Gate Museum"
        }, 
        {
            "url": "https://en.wikipedia.org/wiki/House-Museum_of_Aram_Khachaturian", 
            "lat": 40.190175, 
            "lon": 44.51340556, 
            "id": "wiki_225", 
            "title": "House-Museum of Aram Khachaturian"
        }, 
        {
            "url": "https://en.wikipedia.org/wiki/Kite_Museum", 
            "lat": 2.19169444, 
            "lon": 102.24922222, 
            "id": "wiki_226", 
            "title": "Kite Museum"
        }, 
        {
            "url": "https://en.wikipedia.org/wiki/Beauty_Museum", 
            "lat": 2.19169444, 
            "lon": 102.24922222, 
            "id": "wiki_227", 
            "title": "Beauty Museum"
        }, 
        {
            "url": "https://en.wikipedia.org/wiki/State_Museum_of_Zoology,_Dresden", 
            "lat": 51.12888889, 
            "lon": 13.79, 
            "id": "wiki_228", 
            "title": "State Museum of Zoology, Dresden"
        }, 
        {
            "url": "https://en.wikipedia.org/wiki/Speed_Art_Museum", 
            "lat": 38.21786111, 
            "lon": -85.76091667, 
            "id": "wiki_229", 
            "title": "Speed Art Museum"
        }, 
        {
            "url": "https://en.wikipedia.org/wiki/Dal\u00ed_Theatre_and_Museum", 
            "lat": 42.26805556, 
            "lon": 2.95944444, 
            "id": "wiki_230", 
            "title": "Dal\u00ed Theatre and Museum"
        }, 
        {
            "url": "https://en.wikipedia.org/wiki/Byzantine_and_Christian_Museum", 
            "lat": 37.97472222, 
            "lon": 23.74444444, 
            "id": "wiki_231", 
            "title": "Byzantine and Christian Museum"
        }, 
        {
            "url": "https://en.wikipedia.org/wiki/Canadian_Museum_of_Nature", 
            "lat": 45.41266, 
            "lon": -75.68875, 
            "id": "wiki_232", 
            "title": "Canadian Museum of Nature"
        }, 
        {
            "url": "https://en.wikipedia.org/wiki/Hatthikuchchi_Museum", 
            "lat": 8.03416667, 
            "lon": 80.26833333, 
            "id": "wiki_233", 
            "title": "Hatthikuchchi Museum"
        }, 
        {
            "url": "https://en.wikipedia.org/wiki/Weston_Park_Museum", 
            "lat": 53.381724, 
            "lon": -1.492116, 
            "id": "wiki_234", 
            "title": "Weston Park Museum"
        }, 
        {
            "url": "https://en.wikipedia.org/wiki/Geffrye_Museum", 
            "lat": 51.53173889, 
            "lon": -0.07621944, 
            "id": "wiki_235", 
            "title": "Geffrye Museum"
        }, 
        {
            "url": "https://en.wikipedia.org/wiki/\u00c7aml\u0131k_Railway_Museum", 
            "lat": 37.88522, 
            "lon": 27.38057, 
            "id": "wiki_236", 
            "title": "\u00c7aml\u0131k Railway Museum"
        }, 
        {
            "url": "https://en.wikipedia.org/wiki/Geffrye_Museum", 
            "lat": 51.53173889, 
            "lon": -0.07621944, 
            "id": "wiki_237", 
            "title": "Geffrye Museum"
        }, 
        {
            "url": "https://en.wikipedia.org/wiki/Erebuni_Museum", 
            "lat": 40.14111111, 
            "lon": 44.53527778, 
            "id": "wiki_238", 
            "title": "Erebuni Museum"
        }, 
        {
            "url": "https://en.wikipedia.org/wiki/National_Museum_of_Mexican_Art", 
            "lat": 41.856162, 
            "lon": -87.672948, 
            "id": "wiki_239", 
            "title": "National Museum of Mexican Art"
        }, 
        {
            "url": "https://en.wikipedia.org/wiki/Aalborg_Historical_Museum", 
            "lat": 57.04813889, 
            "lon": 9.91777778, 
            "id": "wiki_240", 
            "title": "Aalborg Historical Museum"
        }, 
        {
            "url": "https://en.wikipedia.org/wiki/Military_Museum_of_the_Chinese_People's_Revolution", 
            "lat": 39.90766944, 
            "lon": 116.31772222, 
            "id": "wiki_241", 
            "title": "Military Museum of the Chinese People's Revolution"
        }, 
        {
            "url": "https://en.wikipedia.org/wiki/Museum_of_Ostad_Bohtouni", 
            "lat": 38.08416667, 
            "lon": 46.30388889, 
            "id": "wiki_242", 
            "title": "Museum of Ostad Bohtouni"
        }, 
        {
            "url": "https://en.wikipedia.org/wiki/Norman_Rockwell_Museum", 
            "lat": 42.2879, 
            "lon": -73.3359, 
            "id": "wiki_243", 
            "title": "Norman Rockwell Museum"
        }, 
        {
            "url": "https://en.wikipedia.org/wiki/National_Museum_of_Nature_and_Science", 
            "lat": 35.715939, 
            "lon": 139.776527, 
            "id": "wiki_244", 
            "title": "National Museum of Nature and Science"
        }, 
        {
            "url": "https://en.wikipedia.org/wiki/Lancashire_Infantry_Museum", 
            "lat": 53.779, 
            "lon": -2.686, 
            "id": "wiki_245", 
            "title": "Lancashire Infantry Museum"
        }, 
        {
            "url": "https://en.wikipedia.org/wiki/Hallie_Ford_Museum_of_Art", 
            "lat": 44.938512, 
            "lon": -123.033733, 
            "id": "wiki_246", 
            "title": "Hallie Ford Museum of Art"
        }, 
        {
            "url": "https://en.wikipedia.org/wiki/Louisiana_Museum_of_Modern_Art", 
            "lat": 55.96944427, 
            "lon": 12.54305553, 
            "id": "wiki_247", 
            "title": "Louisiana Museum of Modern Art"
        }, 
        {
            "url": "https://en.wikipedia.org/wiki/Ward_Museum_of_Wildfowl_Art", 
            "lat": 38.35138889, 
            "lon": -75.57166667, 
            "id": "wiki_248", 
            "title": "Ward Museum of Wildfowl Art"
        }, 
        {
            "url": "https://en.wikipedia.org/wiki/Mangapps_Railway_Museum", 
            "lat": 51.64694444, 
            "lon": 0.80833333, 
            "id": "wiki_249", 
            "title": "Mangapps Railway Museum"
        }, 
        {
            "url": "https://en.wikipedia.org/wiki/National_Motor_Museum,_Beaulieu", 
            "lat": 50.82297222, 
            "lon": -1.45355556, 
            "id": "wiki_250", 
            "title": "National Motor Museum, Beaulieu"
        }, 
        {
            "url": "https://en.wikipedia.org/wiki/Brandts_Museum_of_Photographic_Art", 
            "lat": 55.39611111, 
            "lon": 10.38055556, 
            "id": "wiki_251", 
            "title": "Brandts Museum of Photographic Art"
        }, 
        {
            "url": "https://en.wikipedia.org/wiki/The_Health_Museum", 
            "lat": 29.7218, 
            "lon": -95.386, 
            "id": "wiki_252", 
            "title": "The Health Museum"
        }, 
        {
            "url": "https://en.wikipedia.org/wiki/Museum_of_Archaeology_and_Anthropology,_University_of_Cambridge", 
            "lat": 52.20269394, 
            "lon": 0.121, 
            "id": "wiki_253", 
            "title": "Museum of Archaeology and Anthropology, University of Cambridge"
        }, 
        {
            "url": "https://en.wikipedia.org/wiki/The_Tech_Museum_of_Innovation", 
            "lat": 37.3314374, 
            "lon": -121.8907276, 
            "id": "wiki_254", 
            "title": "The Tech Museum of Innovation"
        }, 
        {
            "url": "https://en.wikipedia.org/wiki/Museum_of_Macedonia", 
            "lat": 42.0025, 
            "lon": 21.43583333, 
            "id": "wiki_255", 
            "title": "Museum of Macedonia"
        }, 
        {
            "url": "https://en.wikipedia.org/wiki/Museum_of_Applied_Arts,_Belgrade", 
            "lat": 44.81694444, 
            "lon": 20.45444444, 
            "id": "wiki_256", 
            "title": "Museum of Applied Arts, Belgrade"
        }, 
        {
            "url": "https://en.wikipedia.org/wiki/United_States_Army_Aviation_Museum", 
            "lat": 31.32416667, 
            "lon": -85.71305556, 
            "id": "wiki_257", 
            "title": "United States Army Aviation Museum"
        }, 
        {
            "url": "https://en.wikipedia.org/wiki/Smithsonian_American_Art_Museum", 
            "lat": 38.897, 
            "lon": -77.022689, 
            "id": "wiki_258", 
            "title": "Smithsonian American Art Museum"
        }, 
        {
            "url": "https://en.wikipedia.org/wiki/Islamic_Museum,_Jerusalem", 
            "lat": 31.776075, 
            "lon": 35.23481111, 
            "id": "wiki_259", 
            "title": "Islamic Museum, Jerusalem"
        }, 
        {
            "url": "https://en.wikipedia.org/wiki/Slovenian_Museum_of_Natural_History", 
            "lat": 46.05222222, 
            "lon": 14.49944444, 
            "id": "wiki_260", 
            "title": "Slovenian Museum of Natural History"
        }, 
        {
            "url": "https://en.wikipedia.org/wiki/Malaysia_Architecture_Museum", 
            "lat": 2.19272222, 
            "lon": 102.24855556, 
            "id": "wiki_261", 
            "title": "Malaysia Architecture Museum"
        }, 
        {
            "url": "https://en.wikipedia.org/wiki/BYU_Museum_of_Paleontology", 
            "lat": 40.2564, 
            "lon": -111.657, 
            "id": "wiki_262", 
            "title": "BYU Museum of Paleontology"
        }, 
        {
            "url": "https://en.wikipedia.org/wiki/Museum_of_Imagery_Technology", 
            "lat": 13.73710346, 
            "lon": 100.52965546, 
            "id": "wiki_263", 
            "title": "Museum of Imagery Technology"
        }, 
        {
            "url": "https://en.wikipedia.org/wiki/Imperial_Museum_of_Brazil", 
            "lat": -22.50815582, 
            "lon": -43.17527771, 
            "id": "wiki_264", 
            "title": "Imperial Museum of Brazil"
        }, 
        {
            "url": "https://en.wikipedia.org/wiki/Kamthieng_House_Museum", 
            "lat": 13.73976, 
            "lon": 100.561627, 
            "id": "wiki_265", 
            "title": "Kamthieng House Museum"
        }, 
        {
            "url": "https://en.wikipedia.org/wiki/National_Museums_of_Kenya", 
            "lat": -1.27388889, 
            "lon": 36.815, 
            "id": "wiki_266", 
            "title": "National Museums of Kenya"
        }, 
        {
            "url": "https://en.wikipedia.org/wiki/Russian_Museum", 
            "lat": 59.938742, 
            "lon": 30.332385, 
            "id": "wiki_267", 
            "title": "Russian Museum"
        }, 
        {
            "url": "https://en.wikipedia.org/wiki/National_Mustard_Museum", 
            "lat": 43.095372, 
            "lon": -89.511093, 
            "id": "wiki_268", 
            "title": "National Mustard Museum"
        }, 
        {
            "url": "https://en.wikipedia.org/wiki/Museum_of_Domestic_Design_and_Architecture", 
            "lat": 51.64444351, 
            "lon": -0.14722222, 
            "id": "wiki_269", 
            "title": "Museum of Domestic Design and Architecture"
        }, 
        {
            "url": "https://en.wikipedia.org/wiki/Washington_National_Guard_Museum", 
            "lat": 47.115, 
            "lon": -122.5647, 
            "id": "wiki_270", 
            "title": "Washington National Guard Museum"
        }, 
        {
            "url": "https://en.wikipedia.org/wiki/Democratic_Government_Museum", 
            "lat": 2.19305556, 
            "lon": 102.24902778, 
            "id": "wiki_271", 
            "title": "Democratic Government Museum"
        }, 
        {
            "url": "https://en.wikipedia.org/wiki/Kent_Battle_of_Britain_Museum", 
            "lat": 51.11289978, 
            "lon": 1.15180004, 
            "id": "wiki_272", 
            "title": "Kent Battle of Britain Museum"
        }, 
        {
            "url": "https://en.wikipedia.org/wiki/Lower_East_Side_Tenement_Museum", 
            "lat": 40.7185, 
            "lon": -73.99013889, 
            "id": "wiki_273", 
            "title": "Lower East Side Tenement Museum"
        }, 
        {
            "url": "https://en.wikipedia.org/wiki/National_Palace_Museum", 
            "lat": 25.10194444, 
            "lon": 121.54861111, 
            "id": "wiki_274", 
            "title": "National Palace Museum"
        }, 
        {
            "url": "https://en.wikipedia.org/wiki/Samuel_P._Harn_Museum_of_Art", 
            "lat": 29.63694444, 
            "lon": -82.37, 
            "id": "wiki_275", 
            "title": "Samuel P. Harn Museum of Art"
        }, 
        {
            "url": "https://en.wikipedia.org/wiki/Mangapps_Railway_Museum", 
            "lat": 51.64694444, 
            "lon": 0.80833333, 
            "id": "wiki_276", 
            "title": "Mangapps Railway Museum"
        }, 
        {
            "url": "https://en.wikipedia.org/wiki/Malacca_Literature_Museum", 
            "lat": 2.19380556, 
            "lon": 102.24955556, 
            "id": "wiki_277", 
            "title": "Malacca Literature Museum"
        }, 
        {
            "url": "https://en.wikipedia.org/wiki/Kumu_(museum)", 
            "lat": 59.43638889, 
            "lon": 24.79638889, 
            "id": "wiki_278", 
            "title": "Kumu (museum)"
        }, 
        {
            "url": "https://en.wikipedia.org/wiki/Azerbaijan_Carpet_Museum", 
            "lat": 40.36944444, 
            "lon": 49.8425, 
            "id": "wiki_279", 
            "title": "Azerbaijan Carpet Museum"
        }, 
        {
            "url": "https://en.wikipedia.org/wiki/National_Museum_of_Singapore", 
            "lat": 1.29672222, 
            "lon": 103.84863889, 
            "id": "wiki_280", 
            "title": "National Museum of Singapore"
        }, 
        {
            "url": "https://en.wikipedia.org/wiki/San_Jose_Museum_of_Quilts_&_Textiles", 
            "lat": 37.32805556, 
            "lon": -121.88444444, 
            "id": "wiki_281", 
            "title": "San Jose Museum of Quilts & Textiles"
        }, 
        {
            "url": "https://en.wikipedia.org/wiki/China_Railway_Museum", 
            "lat": 39.99629974, 
            "lon": 116.51029968, 
            "id": "wiki_282", 
            "title": "China Railway Museum"
        }, 
        {
            "url": "https://en.wikipedia.org/wiki/Komitas_Museum", 
            "lat": 40.16222222, 
            "lon": 44.50222222, 
            "id": "wiki_283", 
            "title": "Komitas Museum"
        }, 
        {
            "url": "https://en.wikipedia.org/wiki/Peterborough_Museum_and_Art_Gallery", 
            "lat": 52.57176, 
            "lon": -0.2459, 
            "id": "wiki_284", 
            "title": "Peterborough Museum and Art Gallery"
        }, 
        {
            "url": "https://en.wikipedia.org/wiki/Pacific_Aviation_Museum_Pearl_Harbor", 
            "lat": 21.359995, 
            "lon": -157.961719, 
            "id": "wiki_285", 
            "title": "Pacific Aviation Museum Pearl Harbor"
        }, 
        {
            "url": "https://en.wikipedia.org/wiki/Buxton_Museum_and_Art_Gallery", 
            "lat": 53.25667572, 
            "lon": -1.91452003, 
            "id": "wiki_286", 
            "title": "Buxton Museum and Art Gallery"
        }, 
        {
            "url": "https://en.wikipedia.org/wiki/Horniman_Museum", 
            "lat": 51.44055557, 
            "lon": -0.06083333, 
            "id": "wiki_287", 
            "title": "Horniman Museum"
        }, 
        {
            "url": "https://en.wikipedia.org/wiki/Theatrical_Museum_of_Greece", 
            "lat": 37.98166656, 
            "lon": 23.73444366, 
            "id": "wiki_288", 
            "title": "Theatrical Museum of Greece"
        }, 
        {
            "url": "https://en.wikipedia.org/wiki/National_Museum_(Prague)", 
            "lat": 50.07883056, 
            "lon": 14.43079722, 
            "id": "wiki_289", 
            "title": "National Museum (Prague)"
        }, 
        {
            "url": "https://en.wikipedia.org/wiki/National_Historical_Museum_(Bulgaria)", 
            "lat": 42.654975, 
            "lon": 23.27080278, 
            "id": "wiki_290", 
            "title": "National Historical Museum (Bulgaria)"
        }, 
        {
            "url": "https://en.wikipedia.org/wiki/Fernbank_Museum_of_Natural_History", 
            "lat": 33.773966, 
            "lon": -84.3276, 
            "id": "wiki_291", 
            "title": "Fernbank Museum of Natural History"
        }, 
        {
            "url": "https://en.wikipedia.org/wiki/Museum_L-A", 
            "lat": 44.0953, 
            "lon": -70.2187, 
            "id": "wiki_292", 
            "title": "Museum L-A"
        }, 
        {
            "url": "https://en.wikipedia.org/wiki/Pars_Museum", 
            "lat": 29.61600833, 
            "lon": 52.545, 
            "id": "wiki_293", 
            "title": "Pars Museum"
        }, 
        {
            "url": "https://en.wikipedia.org/wiki/Independence_Seaport_Museum", 
            "lat": 39.94627, 
            "lon": -75.14023, 
            "id": "wiki_294", 
            "title": "Independence Seaport Museum"
        }, 
        {
            "url": "https://en.wikipedia.org/wiki/The_Maritime_Experiential_Museum", 
            "lat": 1.25833333, 
            "lon": 103.8205, 
            "id": "wiki_295", 
            "title": "The Maritime Experiential Museum"
        }, 
        {
            "url": "https://en.wikipedia.org/wiki/National_Railway_Museum_Shildon", 
            "lat": 54.6243, 
            "lon": -1.6306, 
            "id": "wiki_296", 
            "title": "National Railway Museum Shildon"
        }, 
        {
            "url": "https://en.wikipedia.org/wiki/Amberley_Museum_&_Heritage_Centre", 
            "lat": 50.898, 
            "lon": -0.5395, 
            "id": "wiki_297", 
            "title": "Amberley Museum & Heritage Centre"
        }, 
        {
            "url": "https://en.wikipedia.org/wiki/Danish_Police_Museum", 
            "lat": 55.6901, 
            "lon": 12.5608, 
            "id": "wiki_298", 
            "title": "Danish Police Museum"
        }, 
        {
            "url": "https://en.wikipedia.org/wiki/People's_Museum", 
            "lat": 2.19169444, 
            "lon": 102.24922222, 
            "id": "wiki_299", 
            "title": "People's Museum"
        }, 
        {
            "url": "https://en.wikipedia.org/wiki/Muzeum_Piernika", 
            "lat": 53.00861111, 
            "lon": 18.60472222, 
            "id": "wiki_300", 
            "title": "Muzeum Piernika"
        }, 
        {
            "url": "https://en.wikipedia.org/wiki/National_Historical_Museum_(Bulgaria)", 
            "lat": 42.654975, 
            "lon": 23.27080278, 
            "id": "wiki_301", 
            "title": "National Historical Museum (Bulgaria)"
        }, 
        {
            "url": "https://en.wikipedia.org/wiki/Kumu_(museum)", 
            "lat": 59.43638889, 
            "lon": 24.79638889, 
            "id": "wiki_302", 
            "title": "Kumu (museum)"
        }, 
        {
            "url": "https://en.wikipedia.org/wiki/Pars_Museum", 
            "lat": 29.61600833, 
            "lon": 52.545, 
            "id": "wiki_303", 
            "title": "Pars Museum"
        }, 
        {
            "url": "https://en.wikipedia.org/wiki/Oscar_Getz_Museum_of_Whiskey_History", 
            "lat": 37.8114, 
            "lon": -85.4711, 
            "id": "wiki_304", 
            "title": "Oscar Getz Museum of Whiskey History"
        }, 
        {
            "url": "https://en.wikipedia.org/wiki/Museum_L-A", 
            "lat": 44.0953, 
            "lon": -70.2187, 
            "id": "wiki_305", 
            "title": "Museum L-A"
        }, 
        {
            "url": "https://en.wikipedia.org/wiki/Independence_Seaport_Museum", 
            "lat": 39.94627, 
            "lon": -75.14023, 
            "id": "wiki_306", 
            "title": "Independence Seaport Museum"
        }, 
        {
            "url": "https://en.wikipedia.org/wiki/National_Print_Museum", 
            "lat": 53.3355, 
            "lon": -6.2346, 
            "id": "wiki_307", 
            "title": "National Print Museum"
        }, 
        {
            "url": "https://en.wikipedia.org/wiki/China_Railway_Museum", 
            "lat": 39.99629974, 
            "lon": 116.51029968, 
            "id": "wiki_308", 
            "title": "China Railway Museum"
        }, 
        {
            "url": "https://en.wikipedia.org/wiki/National_Railway_Museum_Shildon", 
            "lat": 54.6243, 
            "lon": -1.6306, 
            "id": "wiki_309", 
            "title": "National Railway Museum Shildon"
        }, 
        {
            "url": "https://en.wikipedia.org/wiki/The_Maritime_Experiential_Museum", 
            "lat": 1.25833333, 
            "lon": 103.8205, 
            "id": "wiki_310", 
            "title": "The Maritime Experiential Museum"
        }, 
        {
            "url": "https://en.wikipedia.org/wiki/South_Yorkshire_Aircraft_Museum", 
            "lat": 53.5142, 
            "lon": -1.1093, 
            "id": "wiki_311", 
            "title": "South Yorkshire Aircraft Museum"
        }, 
        {
            "url": "https://en.wikipedia.org/wiki/Danish_Police_Museum", 
            "lat": 55.6901, 
            "lon": 12.5608, 
            "id": "wiki_312", 
            "title": "Danish Police Museum"
        }, 
        {
            "url": "https://en.wikipedia.org/wiki/Mus\u00e9e_de_l\u2019air_et_de_l\u2019espace", 
            "lat": 48.9471, 
            "lon": 2.4349, 
            "id": "wiki_313", 
            "title": "Mus\u00e9e de l\u2019air et de l\u2019espace"
        }, 
        {
            "url": "https://en.wikipedia.org/wiki/Muzeum_Piernika", 
            "lat": 53.00861111, 
            "lon": 18.60472222, 
            "id": "wiki_314", 
            "title": "Muzeum Piernika"
        }, 
        {
            "url": "https://en.wikipedia.org/wiki/Museum_of_Fine_Arts,_Ghent", 
            "lat": 51.03829956, 
            "lon": 3.72379994, 
            "id": "wiki_315", 
            "title": "Museum of Fine Arts, Ghent"
        }, 
        {
            "url": "https://en.wikipedia.org/wiki/National_Museum_(Prague)", 
            "lat": 50.07883056, 
            "lon": 14.43079722, 
            "id": "wiki_316", 
            "title": "National Museum (Prague)"
        }, 
        {
            "url": "https://en.wikipedia.org/wiki/Columbus_Museum_of_Art", 
            "lat": 39.96416667, 
            "lon": -82.98777778, 
            "id": "wiki_317", 
            "title": "Columbus Museum of Art"
        }, 
        {
            "url": "https://en.wikipedia.org/wiki/Rodin_Museum", 
            "lat": 39.962, 
            "lon": -75.174, 
            "id": "wiki_318", 
            "title": "Rodin Museum"
        }, 
        {
            "url": "https://en.wikipedia.org/wiki/Museum_of_Greek_Folk_Musical_Instruments", 
            "lat": 37.97438889, 
            "lon": 23.72744444, 
            "id": "wiki_319", 
            "title": "Museum of Greek Folk Musical Instruments"
        }, 
        {
            "url": "https://en.wikipedia.org/wiki/Sixth_Floor_Museum_at_Dealey_Plaza", 
            "lat": 32.77972222, 
            "lon": -96.80833333, 
            "id": "wiki_320", 
            "title": "Sixth Floor Museum at Dealey Plaza"
        }, 
        {
            "url": "https://en.wikipedia.org/wiki/George_Washington_Carver_Museum_and_Cultural_Center", 
            "lat": 30.2699, 
            "lon": -97.7243, 
            "id": "wiki_321", 
            "title": "George Washington Carver Museum and Cultural Center"
        }, 
        {
            "url": "https://en.wikipedia.org/wiki/National_Textile_Museum", 
            "lat": 3.14675, 
            "lon": 101.69405556, 
            "id": "wiki_322", 
            "title": "National Textile Museum"
        }, 
        {
            "url": "https://en.wikipedia.org/wiki/Military_Museum_of_the_Legion", 
            "lat": 35.886667, 
            "lon": -5.31277, 
            "id": "wiki_323", 
            "title": "Military Museum of the Legion"
        }, 
        {
            "url": "https://en.wikipedia.org/wiki/Raahe_Museum", 
            "lat": 64.6875, 
            "lon": 24.47138889, 
            "id": "wiki_324", 
            "title": "Raahe Museum"
        }, 
        {
            "url": "https://en.wikipedia.org/wiki/Sturgis_One_Room_School", 
            "lat": 38.07558333, 
            "lon": -75.56993056, 
            "id": "wiki_325", 
            "title": "Sturgis One Room School"
        }, 
        {
            "url": "https://en.wikipedia.org/wiki/Western_Australian_Museum", 
            "lat": -31.94956, 
            "lon": 115.861391, 
            "id": "wiki_326", 
            "title": "Western Australian Museum"
        }, 
        {
            "url": "https://en.wikipedia.org/wiki/Perth_Museum_and_Art_Gallery", 
            "lat": 56.39830017, 
            "lon": -3.4282999, 
            "id": "wiki_327", 
            "title": "Perth Museum and Art Gallery"
        }, 
        {
            "url": "https://en.wikipedia.org/wiki/Whyte_Museum", 
            "lat": 51.17528, 
            "lon": -115.57328, 
            "id": "wiki_328", 
            "title": "Whyte Museum"
        }, 
        {
            "url": "https://en.wikipedia.org/wiki/Asian_Art_Museum_of_San_Francisco", 
            "lat": 37.780276, 
            "lon": -122.416577, 
            "id": "wiki_329", 
            "title": "Asian Art Museum of San Francisco"
        }, 
        {
            "url": "https://en.wikipedia.org/wiki/Museum_of_Sydney", 
            "lat": -33.86376, 
            "lon": 151.21128, 
            "id": "wiki_330", 
            "title": "Museum of Sydney"
        }, 
        {
            "url": "https://en.wikipedia.org/wiki/Maritime_Museum_of_the_Atlantic", 
            "lat": 44.64769363, 
            "lon": -63.57105637, 
            "id": "wiki_331", 
            "title": "Maritime Museum of the Atlantic"
        }, 
        {
            "url": "https://en.wikipedia.org/wiki/Chinese_American_Museum_of_Chicago", 
            "lat": 41.85112778, 
            "lon": -87.63351944, 
            "id": "wiki_332", 
            "title": "Chinese American Museum of Chicago"
        }, 
        {
            "url": "https://en.wikipedia.org/wiki/Cijin_Shell_Museum", 
            "lat": 22.60127778, 
            "lon": 120.27419444, 
            "id": "wiki_333", 
            "title": "Cijin Shell Museum"
        }, 
        {
            "url": "https://en.wikipedia.org/wiki/Postal_&_Philatelic_Museum_of_Greece", 
            "lat": 37.96979167, 
            "lon": 23.74094167, 
            "id": "wiki_334", 
            "title": "Postal & Philatelic Museum of Greece"
        }, 
        {
            "url": "https://en.wikipedia.org/wiki/National_Museum_of_Natural_History", 
            "lat": 38.8913, 
            "lon": -77.0259, 
            "id": "wiki_335", 
            "title": "National Museum of Natural History"
        }, 
        {
            "url": "https://en.wikipedia.org/wiki/Mersin_Museum", 
            "lat": 36.79398, 
            "lon": 34.62475, 
            "id": "wiki_336", 
            "title": "Mersin Museum"
        }, 
        {
            "url": "https://en.wikipedia.org/wiki/Tramway_Museum_Society_of_Victoria", 
            "lat": -37.353541, 
            "lon": 144.966356, 
            "id": "wiki_337", 
            "title": "Tramway Museum Society of Victoria"
        }, 
        {
            "url": "https://en.wikipedia.org/wiki/Columbus_Museum_of_Art", 
            "lat": 39.96416667, 
            "lon": -82.98777778, 
            "id": "wiki_338", 
            "title": "Columbus Museum of Art"
        }, 
        {
            "url": "https://en.wikipedia.org/wiki/Canadian_Canoe_Museum", 
            "lat": 44.2882, 
            "lon": -78.3304, 
            "id": "wiki_339", 
            "title": "Canadian Canoe Museum"
        }, 
        {
            "url": "https://en.wikipedia.org/wiki/Museum_of_Greek_Folk_Musical_Instruments", 
            "lat": 37.97438889, 
            "lon": 23.72744444, 
            "id": "wiki_340", 
            "title": "Museum of Greek Folk Musical Instruments"
        }, 
        {
            "url": "https://en.wikipedia.org/wiki/San_Francisco_Cable_Car_Museum", 
            "lat": 37.794675, 
            "lon": -122.411396, 
            "id": "wiki_341", 
            "title": "San Francisco Cable Car Museum"
        }, 
        {
            "url": "https://en.wikipedia.org/wiki/Children's_Museum_of_Manhattan", 
            "lat": 40.78586111, 
            "lon": -73.97722222, 
            "id": "wiki_342", 
            "title": "Children's Museum of Manhattan"
        }, 
        {
            "url": "https://en.wikipedia.org/wiki/Sturgis_One_Room_School", 
            "lat": 38.07558333, 
            "lon": -75.56993056, 
            "id": "wiki_343", 
            "title": "Sturgis One Room School"
        }, 
        {
            "url": "https://en.wikipedia.org/wiki/Houston_Museum_District", 
            "lat": 29.72500038, 
            "lon": -95.38899994, 
            "id": "wiki_344", 
            "title": "Houston Museum District"
        }, 
        {
            "url": "https://en.wikipedia.org/wiki/Bristol_City_Museum_and_Art_Gallery", 
            "lat": 51.45610046, 
            "lon": -2.60529995, 
            "id": "wiki_345", 
            "title": "Bristol City Museum and Art Gallery"
        }, 
        {
            "url": "https://en.wikipedia.org/wiki/Asian_Art_Museum_of_San_Francisco", 
            "lat": 37.780276, 
            "lon": -122.416577, 
            "id": "wiki_346", 
            "title": "Asian Art Museum of San Francisco"
        }, 
        {
            "url": "https://en.wikipedia.org/wiki/Gr\u00e5br\u00f8drekloster_Museum", 
            "lat": 57.0472, 
            "lon": 9.9215, 
            "id": "wiki_347", 
            "title": "Gr\u00e5br\u00f8drekloster Museum"
        }, 
        {
            "url": "https://en.wikipedia.org/wiki/Bode_Museum", 
            "lat": 52.52194444, 
            "lon": 13.39472222, 
            "id": "wiki_348", 
            "title": "Bode Museum"
        }, 
        {
            "url": "https://en.wikipedia.org/wiki/The_National_WWII_Museum", 
            "lat": 29.94313889, 
            "lon": -90.07035, 
            "id": "wiki_349", 
            "title": "The National WWII Museum"
        }, 
        {
            "url": "https://en.wikipedia.org/wiki/Latvian_Museum", 
            "lat": 39.08637, 
            "lon": -77.179127, 
            "id": "wiki_350", 
            "title": "Latvian Museum"
        }, 
        {
            "url": "https://en.wikipedia.org/wiki/Nuremberg_Transport_Museum", 
            "lat": 49.445556, 
            "lon": 11.074444, 
            "id": "wiki_351", 
            "title": "Nuremberg Transport Museum"
        }, 
        {
            "url": "https://en.wikipedia.org/wiki/Museum_of_Oxford", 
            "lat": 51.75166702, 
            "lon": -1.25722218, 
            "id": "wiki_352", 
            "title": "Museum of Oxford"
        }, 
        {
            "url": "https://en.wikipedia.org/wiki/Museum_of_Roman_Civilization", 
            "lat": 41.83194351, 
            "lon": 12.47805595, 
            "id": "wiki_353", 
            "title": "Museum of Roman Civilization"
        }, 
        {
            "url": "https://en.wikipedia.org/wiki/Museum_of_Estonian_Architecture", 
            "lat": 59.44036944, 
            "lon": 24.75647778, 
            "id": "wiki_354", 
            "title": "Museum of Estonian Architecture"
        }, 
        {
            "url": "https://en.wikipedia.org/wiki/Jorge_B._Vargas_Museum_and_Filipiniana_Research_Center", 
            "lat": 14.65305556, 
            "lon": 121.06666667, 
            "id": "wiki_355", 
            "title": "Jorge B. Vargas Museum and Filipiniana Research Center"
        }, 
        {
            "url": "https://en.wikipedia.org/wiki/Museum_of_Science_and_Industry_(Chicago)", 
            "lat": 41.79055556, 
            "lon": -87.58277778, 
            "id": "wiki_356", 
            "title": "Museum of Science and Industry (Chicago)"
        }, 
        {
            "url": "https://en.wikipedia.org/wiki/Old_Operating_Theatre_Museum_and_Herb_Garret", 
            "lat": 51.505, 
            "lon": -0.0883, 
            "id": "wiki_357", 
            "title": "Old Operating Theatre Museum and Herb Garret"
        }, 
        {
            "url": "https://en.wikipedia.org/wiki/National_Waterways_Museum", 
            "lat": 53.288, 
            "lon": -2.892, 
            "id": "wiki_358", 
            "title": "National Waterways Museum"
        }, 
        {
            "url": "https://en.wikipedia.org/wiki/Alberta_Central_Railway_Museum", 
            "lat": 52.881, 
            "lon": -113.294, 
            "id": "wiki_359", 
            "title": "Alberta Central Railway Museum"
        }, 
        {
            "url": "https://en.wikipedia.org/wiki/Government_Museum,_Chennai", 
            "lat": 13.07065, 
            "lon": 80.257289, 
            "id": "wiki_360", 
            "title": "Government Museum, Chennai"
        }, 
        {
            "url": "https://en.wikipedia.org/wiki/Naples_National_Archaeological_Museum", 
            "lat": 40.8533783, 
            "lon": 14.25048637, 
            "id": "wiki_361", 
            "title": "Naples National Archaeological Museum"
        }, 
        {
            "url": "https://en.wikipedia.org/wiki/Wazir_Mansion", 
            "lat": 24.85083333, 
            "lon": 66.9975, 
            "id": "wiki_362", 
            "title": "Wazir Mansion"
        }, 
        {
            "url": "https://en.wikipedia.org/wiki/Han_Sang_Soo_Embroidery_Museum", 
            "lat": 37.5828, 
            "lon": 126.9855, 
            "id": "wiki_363", 
            "title": "Han Sang Soo Embroidery Museum"
        }, 
        {
            "url": "https://en.wikipedia.org/wiki/Pennsylvania_Anthracite_Heritage_Museum", 
            "lat": 41.4153, 
            "lon": -75.7132, 
            "id": "wiki_364", 
            "title": "Pennsylvania Anthracite Heritage Museum"
        }, 
        {
            "url": "https://en.wikipedia.org/wiki/National_Waterways_Museum", 
            "lat": 53.288, 
            "lon": -2.892, 
            "id": "wiki_365", 
            "title": "National Waterways Museum"
        }, 
        {
            "url": "https://en.wikipedia.org/wiki/Tradition_and_Custom_Museum", 
            "lat": 2.38336111, 
            "lon": 102.20930556, 
            "id": "wiki_366", 
            "title": "Tradition and Custom Museum"
        }, 
        {
            "url": "https://en.wikipedia.org/wiki/Museum_of_Estonian_Architecture", 
            "lat": 59.44036944, 
            "lon": 24.75647778, 
            "id": "wiki_367", 
            "title": "Museum of Estonian Architecture"
        }, 
        {
            "url": "https://en.wikipedia.org/wiki/Chinese_Aviation_Museum", 
            "lat": 40.1831665, 
            "lon": 116.35675049, 
            "id": "wiki_368", 
            "title": "Chinese Aviation Museum"
        }, 
        {
            "url": "https://en.wikipedia.org/wiki/National_Historical_Museum_(Argentina)", 
            "lat": -34.62694444, 
            "lon": -58.37055556, 
            "id": "wiki_369", 
            "title": "National Historical Museum (Argentina)"
        }, 
        {
            "url": "https://en.wikipedia.org/wiki/Museum_of_Croydon", 
            "lat": 51.37220001, 
            "lon": -0.0994, 
            "id": "wiki_370", 
            "title": "Museum of Croydon"
        }, 
        {
            "url": "https://en.wikipedia.org/wiki/Amsterdam_Museum", 
            "lat": 52.3702, 
            "lon": 4.8907, 
            "id": "wiki_371", 
            "title": "Amsterdam Museum"
        }, 
        {
            "url": "https://en.wikipedia.org/wiki/National_Museum_of_Iran", 
            "lat": 35.68704444, 
            "lon": 51.41461111, 
            "id": "wiki_372", 
            "title": "National Museum of Iran"
        }, 
        {
            "url": "https://en.wikipedia.org/wiki/Missouri_History_Museum", 
            "lat": 38.6452, 
            "lon": -90.2859, 
            "id": "wiki_373", 
            "title": "Missouri History Museum"
        }, 
        {
            "url": "https://en.wikipedia.org/wiki/\u00dcbersee-Museum_Bremen", 
            "lat": 53.0833, 
            "lon": 8.81056, 
            "id": "wiki_374", 
            "title": "\u00dcbersee-Museum Bremen"
        }, 
        {
            "url": "https://en.wikipedia.org/wiki/Electric_City_Trolley_Museum", 
            "lat": 41.40944444, 
            "lon": -75.67305556, 
            "id": "wiki_375", 
            "title": "Electric City Trolley Museum"
        }, 
        {
            "url": "https://en.wikipedia.org/wiki/Anton\u00edn_Dvo\u0159\u00e1k_Museum", 
            "lat": 50.073668, 
            "lon": 14.426979, 
            "id": "wiki_376", 
            "title": "Anton\u00edn Dvo\u0159\u00e1k Museum"
        }, 
        {
            "url": "https://en.wikipedia.org/wiki/National_Museum_of_American_Jewish_History", 
            "lat": 39.950288, 
            "lon": -75.148593, 
            "id": "wiki_377", 
            "title": "National Museum of American Jewish History"
        }, 
        {
            "url": "https://en.wikipedia.org/wiki/Museum_of_Greek_Folk_Art", 
            "lat": 37.97253333, 
            "lon": 23.73230833, 
            "id": "wiki_378", 
            "title": "Museum of Greek Folk Art"
        }, 
        {
            "url": "https://en.wikipedia.org/wiki/Postal_museum,_Colombo", 
            "lat": 6.92802778, 
            "lon": 79.85808333, 
            "id": "wiki_379", 
            "title": "Postal museum, Colombo"
        }, 
        {
            "url": "https://en.wikipedia.org/wiki/Lithuanian_Art_Museum", 
            "lat": 54.68083333, 
            "lon": 25.29, 
            "id": "wiki_380", 
            "title": "Lithuanian Art Museum"
        }, 
        {
            "url": "https://en.wikipedia.org/wiki/Textile_Museum_of_Canada", 
            "lat": 43.6546, 
            "lon": -79.3868, 
            "id": "wiki_381", 
            "title": "Textile Museum of Canada"
        }, 
        {
            "url": "https://en.wikipedia.org/wiki/Blackburn_Museum_and_Art_Gallery", 
            "lat": 53.7501, 
            "lon": -2.4841, 
            "id": "wiki_382", 
            "title": "Blackburn Museum and Art Gallery"
        }, 
        {
            "url": "https://en.wikipedia.org/wiki/Zagreb_City_Museum", 
            "lat": 45.81833267, 
            "lon": 15.97500038, 
            "id": "wiki_383", 
            "title": "Zagreb City Museum"
        }, 
        {
            "url": "https://en.wikipedia.org/wiki/State_Museum_of_Pennsylvania", 
            "lat": 40.2658, 
            "lon": -76.8852, 
            "id": "wiki_384", 
            "title": "State Museum of Pennsylvania"
        }, 
        {
            "url": "https://en.wikipedia.org/wiki/Chazen_Museum_of_Art", 
            "lat": 43.07388889, 
            "lon": -89.39972222, 
            "id": "wiki_385", 
            "title": "Chazen Museum of Art"
        }, 
        {
            "url": "https://en.wikipedia.org/wiki/Modern_Art_Museum_of_Yerevan", 
            "lat": 40.17972222, 
            "lon": 44.50527778, 
            "id": "wiki_386", 
            "title": "Modern Art Museum of Yerevan"
        }, 
        {
            "url": "https://en.wikipedia.org/wiki/Finnish_Airforce_Museum", 
            "lat": 62.38722229, 
            "lon": 25.68194389, 
            "id": "wiki_387", 
            "title": "Finnish Airforce Museum"
        }, 
        {
            "url": "https://en.wikipedia.org/wiki/Bergen_Museum", 
            "lat": 60.38762222, 
            "lon": 5.32158056, 
            "id": "wiki_388", 
            "title": "Bergen Museum"
        }, 
        {
            "url": "https://en.wikipedia.org/wiki/Technisches_Museum_Wien", 
            "lat": 48.19083333, 
            "lon": 16.3175, 
            "id": "wiki_389", 
            "title": "Technisches Museum Wien"
        }, 
        {
            "url": "https://en.wikipedia.org/wiki/Discovery_Children's_Museum", 
            "lat": 36.16888889, 
            "lon": -115.1525, 
            "id": "wiki_390", 
            "title": "Discovery Children's Museum"
        }, 
        {
            "url": "https://en.wikipedia.org/wiki/Hagerstown_Roundhouse_Museum", 
            "lat": 39.64416667, 
            "lon": -77.73305556, 
            "id": "wiki_391", 
            "title": "Hagerstown Roundhouse Museum"
        }, 
        {
            "url": "https://en.wikipedia.org/wiki/Vasa_Museum", 
            "lat": 59.32794, 
            "lon": 18.09139, 
            "id": "wiki_392", 
            "title": "Vasa Museum"
        }, 
        {
            "url": "https://en.wikipedia.org/wiki/Abingdon_County_Hall_Museum", 
            "lat": 51.67, 
            "lon": -1.2815, 
            "id": "wiki_393", 
            "title": "Abingdon County Hall Museum"
        }, 
        {
            "url": "https://en.wikipedia.org/wiki/National_Archaeological_Museum_(Florence)", 
            "lat": 43.77623889, 
            "lon": 11.26226667, 
            "id": "wiki_394", 
            "title": "National Archaeological Museum (Florence)"
        }, 
        {
            "url": "https://en.wikipedia.org/wiki/Altes_Museum", 
            "lat": 52.51944444, 
            "lon": 13.39833333, 
            "id": "wiki_395", 
            "title": "Altes Museum"
        }, 
        {
            "url": "https://en.wikipedia.org/wiki/Knud_Rasmussen's_Museum", 
            "lat": 69.2192, 
            "lon": -51.1043, 
            "id": "wiki_396", 
            "title": "Knud Rasmussen's Museum"
        }, 
        {
            "url": "https://en.wikipedia.org/wiki/Peter_J._McGovern_Little_League_Museum", 
            "lat": 41.2288, 
            "lon": -76.9808, 
            "id": "wiki_397", 
            "title": "Peter J. McGovern Little League Museum"
        }, 
        {
            "url": "https://en.wikipedia.org/wiki/Museum_of_Contemporary_Art_Australia", 
            "lat": -33.860019, 
            "lon": 151.208999, 
            "id": "wiki_398", 
            "title": "Museum of Contemporary Art Australia"
        }, 
        {
            "url": "https://en.wikipedia.org/wiki/American_Museum_of_Natural_History", 
            "lat": 40.78055556, 
            "lon": -73.97472222, 
            "id": "wiki_399", 
            "title": "American Museum of Natural History"
        }, 
        {
            "url": "https://en.wikipedia.org/wiki/Arakkal_Museum", 
            "lat": 11.8591, 
            "lon": 75.3792, 
            "id": "wiki_400", 
            "title": "Arakkal Museum"
        }, 
        {
            "url": "https://en.wikipedia.org/wiki/Museum_of_Roman_Civilization", 
            "lat": 41.83194351, 
            "lon": 12.47805595, 
            "id": "wiki_401", 
            "title": "Museum of Roman Civilization"
        }, 
        {
            "url": "https://en.wikipedia.org/wiki/\u0130zmir_Art_and_Sculpture_Museum", 
            "lat": 38.4154, 
            "lon": 27.1256, 
            "id": "wiki_402", 
            "title": "\u0130zmir Art and Sculpture Museum"
        }, 
        {
            "url": "https://en.wikipedia.org/wiki/The_Mind_Museum", 
            "lat": 14.55230045, 
            "lon": 121.04566956, 
            "id": "wiki_403", 
            "title": "The Mind Museum"
        }, 
        {
            "url": "https://en.wikipedia.org/wiki/University_of_Copenhagen_Zoological_Museum", 
            "lat": 55.7024498, 
            "lon": 12.5590601, 
            "id": "wiki_404", 
            "title": "University of Copenhagen Zoological Museum"
        },